storeid,lat,lon,country,display_name,road,house_number,city,state,suburb,postcode,category,type,osm_type,osm_id
164399,-35.42720032,-71.65129852,,"1735, Calle 1 Norte, Villa Olavarría, Talca, Provincia de Talca, Región del Maule, 3461761, Chile",Calle 1 Norte,1735,Talca,Región del Maule,,3461761,building,yes,way,564879196.0
193113,-35.43310165,-71.63040161,,"Mall Plaza Maule, 1055, Avenida Circunvalación 30 Oriente, Villa Don Matías, San Miguel, Talca, Provincia de Talca, Región del Maule, 3461761, Chile",Avenida Circunvalación 30 Oriente,1055,Talca,Región del Maule,San Miguel,3461761,shop,mall,way,110780381.0
193184,-35.42689896,-71.65570068,,"Farmacias Ahumada, Calle 1 Norte, Población Juan Antonio Ríos, Talca, Provincia de Talca, Región del Maule, 3461761, Chile",Calle 1 Norte,,Talca,Región del Maule,,3461761,amenity,pharmacy,node,1239318067.0
200833,-35.41490173,-71.65170288,,"Calle 9½ Oriente, Villa Salamanca, Barrio Norte, Talca, Provincia de Talca, Región del Maule, 3461761, Chile",Calle 9½ Oriente,,Talca,Región del Maule,Barrio Norte,3461761,highway,residential,way,1005119937.0
239019,-35.43170166,-71.60810089,,"Paseo Las Rastras, Avenida 9 Norte, Estancia Las Rastras, Esmeralda, Talca, Provincia de Talca, Región del Maule, 3461761, Chile",Avenida 9 Norte,,Talca,Región del Maule,Esmeralda,3461761,shop,mall,way,723880349.0
248535,-35.41930008,-71.65630341,,"Calle 7 Oriente, Villa San Esteban, Barrio Norte, Talca, Provincia de Talca, Región del Maule, 3461761, Chile",Calle 7 Oriente,,Talca,Región del Maule,Barrio Norte,3461761,highway,residential,way,33530200.0
256903,-35.42810059,-71.66320038,,"Cruzero Ltda., 987, 2 Sur, Población Ferroviaria, Talca, Provincia de Talca, Región del Maule, 3461761, Chile",2 Sur,987,Talca,Región del Maule,,3461761,building,yes,way,246196953.0
270067,-35.43510056,-71.67030334,,"Botillería España, Piduco, Población Diego Portales, La Florida, Talca, Provincia de Talca, Región del Maule, 3460000, Chile",Piduco,,Talca,Región del Maule,La Florida,3460000,craft,winery,node,3165873878.0
273998,-35.4477005,-71.65950012,,"Población Colín 4, Talca, Provincia de Talca, Región del Maule, 3461761, Chile",,,Talca,Región del Maule,,3461761,highway,living_street,way,110580168.0
282487,-35.43809891,-71.67060089,,"Pasaje Castilla, Independencia, La Florida, Talca, Provincia de Talca, Región del Maule, 3460000, Chile",Pasaje Castilla,,Talca,Región del Maule,La Florida,3460000,highway,residential,way,195058057.0
282805,-35.43199921,-71.67749786,,"Botilleria Sederap, 10 Sur, Villa Edén, La Florida, Talca, Provincia de Talca, Región del Maule, 3460000, Chile",10 Sur,,Talca,Región del Maule,La Florida,3460000,shop,alcohol,node,3156437879.0
287571,-35.43389893,-71.64640045,,"Calle 5 Sur, Villa Juan Herrera, San Miguel, Talca, Provincia de Talca, Región del Maule, 3461761, Chile",Calle 5 Sur,,Talca,Región del Maule,San Miguel,3461761,highway,tertiary,way,224699509.0
309313,-35.430236,-71.6464837,,"Supermercados Lider, Calle 13 Oriente, Paso Moya, Talca, Provincia de Talca, Región del Maule, 3461761, Chile",Calle 13 Oriente,,Talca,Región del Maule,,3461761,shop,supermarket,way,258990113.0
355402,-35.4371849,-71.6119035,,"Calle Servicio Las Rastras, Estancia Las Rastras, Esmeralda, Talca, Provincia de Talca, Región del Maule, 3461761, Chile",Calle Servicio Las Rastras,,Talca,Región del Maule,Esmeralda,3461761,highway,residential,way,110778758.0
365981,-35.43593591,-71.6893625,,"Botilleria Sol de la Noche, 17 Poniente, Villa Galilea D, La Florida, Talca, Provincia de Talca, Región del Maule, 3460000, Chile",17 Poniente,,Talca,Región del Maule,La Florida,3460000,shop,alcohol,node,1239306932.0
157798,-35.42581,-71.65659,,"1284, Calle 7 Oriente, Población Juan Antonio Ríos, Talca, Provincia de Talca, Región del Maule, 3461761, Chile",Calle 7 Oriente,1284,Talca,Región del Maule,,3461761,building,house,way,637043712.0
181873,-35.41149902,-71.64420319,,"Almacen, 12 Oriente, Villa Don Sebastián, Lircay, Talca, Provincia de Talca, Región del Maule, 3461761, Chile",12 Oriente,,Talca,Región del Maule,Lircay,3461761,shop,convenience,node,847527918.0
186275,-35.45050049,-71.67479706,,"26 Sur, Villa Pucara, Talca, Provincia de Talca, Región del Maule, 3460000, Chile",26 Sur,,Talca,Región del Maule,,3460000,highway,tertiary,way,224752432.0
201185,-35.44269943,-71.62940216,,"Avenida 8 Sur, Población Carlos Trupp, San Miguel, Talca, Provincia de Talca, Región del Maule, 3461761, Chile",Avenida 8 Sur,,Talca,Región del Maule,San Miguel,3461761,highway,tertiary,way,224813449.0
255626,-35.45869827,-71.67739868,,"Pasaje Valle Los Condores, Villa Doña Antonia 4, Maule Norte, Maule, Provincia de Talca, Región del Maule, 3460000, Chile",Pasaje Valle Los Condores,,,Región del Maule,,3460000,highway,living_street,way,281669881.0
267157,-35.45529938,-71.6760025,,"Calle La Foresta, Villa Doña Antonia 4, Maule Norte, Maule, Provincia de Talca, Región del Maule, 3460000, Chile",Calle La Foresta,,,Región del Maule,,3460000,highway,residential,way,281734840.0
286469,-35.41059875,-71.64569855,,"Almacen, Calle 17 Norte, Don Arturo, Barrio Norte, Talca, Provincia de Talca, Región del Maule, 3461761, Chile",Calle 17 Norte,,Talca,Región del Maule,Barrio Norte,3461761,shop,convenience,node,847527919.0
296776,-35.44589996,-71.6548996,,"Calle 10 Oriente, Población Colín 1, Talca, Provincia de Talca, Región del Maule, 3461761, Chile",Calle 10 Oriente,,Talca,Región del Maule,,3461761,highway,tertiary,way,486642232.0
308260,-35.40269852,-71.6411972,,"21½ Norte, Villa Don Rafael, Lircay, Talca, Provincia de Talca, Región del Maule, 3461761, Chile",21½ Norte,,Talca,Región del Maule,Lircay,3461761,highway,residential,way,194630342.0
320438,-35.40810013,-71.64040375,,"Villa Don Sebastián, Lircay, Talca, Provincia de Talca, Región del Maule, 3461761, Chile",,,Talca,Región del Maule,Lircay,3461761,highway,living_street,way,1005113698.0
339426,-35.4460312,-71.6808576,,"25½ Sur, Villa Conavicoop, La Florida, Talca, Provincia de Talca, Región del Maule, 3460000, Chile",25½ Sur,,Talca,Región del Maule,La Florida,3460000,highway,living_street,way,102187775.0
360431,-35.4167274,-71.6381593,,"Calle 16 Oriente, Villa El Parque, Talca, Provincia de Talca, Región del Maule, 3461761, Chile",Calle 16 Oriente,,Talca,Región del Maule,,3461761,highway,residential,way,58999910.0
365881,-35.4410574,-71.6773585,,"4½ Poniente C, Villa Perú, La Florida, Talca, Provincia de Talca, Región del Maule, 3460000, Chile",4½ Poniente C,,Talca,Región del Maule,La Florida,3460000,highway,living_street,way,102187907.0
370430,-35.4165449,-71.6356866,,"Pasaje 16½ Oriente A, Villa El Parque, Talca, Provincia de Talca, Región del Maule, 3461761, Chile",Pasaje 16½ Oriente A,,Talca,Región del Maule,,3461761,highway,living_street,way,213579407.0
64325,-35.42359924,-71.65480042,,"Supermercado Tottus, Calle 8 Oriente, Población Juan Antonio Ríos, Talca, Provincia de Talca, Región del Maule, 3461761, Chile",Calle 8 Oriente,,Talca,Región del Maule,,3461761,shop,supermarket,way,282396148.0
156526,-35.4277187,-71.6579245,,"Centro Comercial Salomón Sabag, Galería Salomón Sabag, Población Juan Antonio Ríos, Talca, Provincia de Talca, Región del Maule, 3461761, Chile",Galería Salomón Sabag,,Talca,Región del Maule,,3461761,building,commercial,way,275506462.0
161839,-35.42630005,-71.66290283,,"Doña cristina, Calle 1 Norte, Población Juan Antonio Ríos, Talca, Provincia de Talca, Región del Maule, 3460000, Chile",Calle 1 Norte,,Talca,Región del Maule,,3460000,building,yes,way,939148470.0
178991,-35.42770004,-71.62519836,,"Calle 5 Norte, Villa Don Alfonso, Talca, Provincia de Talca, Región del Maule, 3461761, Chile",Calle 5 Norte,,Talca,Región del Maule,,3461761,highway,tertiary,way,28606188.0
185427,-35.45050049,-71.67479706,,"26 Sur, Villa Pucara, Talca, Provincia de Talca, Región del Maule, 3460000, Chile",26 Sur,,Talca,Región del Maule,,3460000,highway,tertiary,way,224752432.0
191837,-35.4278191,-71.6409656,,"Petrobras, Calle 1 Norte, Población Pedro Aguirre Cerda, Talca, Provincia de Talca, Región del Maule, 3461761, Chile",Calle 1 Norte,,Talca,Región del Maule,,3461761,amenity,fuel,node,1239318055.0
192858,-35.42770004,-71.65709686,,"Farmacias Ahumada, Calle 1 Sur, Villa Olavarría, Talca, Provincia de Talca, Región del Maule, 3461761, Chile",Calle 1 Sur,,Talca,Región del Maule,,3461761,amenity,pharmacy,node,1239318070.0
193108,-35.42950058,-71.67089844,,"Jumbo, Carlos Schorr, Villa Edén, La Florida, Talca, Provincia de Talca, Región del Maule, 3460000, Chile",Carlos Schorr,,Talca,Región del Maule,La Florida,3460000,shop,supermarket,way,115204739.0
195269,-35.443648,-71.663578,,"Calle 15 Oriente, Población Cerámica, Talca, Provincia de Talca, Región del Maule, 3460000, Chile",Calle 15 Oriente,,Talca,Región del Maule,,3460000,highway,secondary,way,195201804.0
254682,-35.42630005,-71.66290283,,"Doña cristina, Calle 1 Norte, Población Juan Antonio Ríos, Talca, Provincia de Talca, Región del Maule, 3460000, Chile",Calle 1 Norte,,Talca,Región del Maule,,3460000,building,yes,way,939148470.0
261190,-35.42819977,-71.65840149,,"Galería Bavaria, 6 oriente, Villa San Luis, Barrio Norte, Talca, Provincia de Talca, Región del Maule, 3461761, Chile",6 oriente,,Talca,Región del Maule,Barrio Norte,3461761,building,commercial,way,364439675.0
263461,-35.43130112,-71.62180328,,"Tu Espacio VIVO, Calle 4 Norte, Villa Don Matías, San Miguel, Talca, Provincia de Talca, Región del Maule, 3461761, Chile",Calle 4 Norte,,Talca,Región del Maule,San Miguel,3461761,shop,mall,way,587792320.0
263675,-35.4297959,-71.6196034,,"Calle 5 Norte, Las Rastras, Esmeralda, Talca, Provincia de Talca, Región del Maule, 3461761, Chile",Calle 5 Norte,,Talca,Región del Maule,Esmeralda,3461761,highway,tertiary,way,1072476988.0
282825,-35.41049957,-71.64559937,,"Almacen, Calle 17 Norte, Don Arturo, Barrio Norte, Talca, Provincia de Talca, Región del Maule, 3461761, Chile",Calle 17 Norte,,Talca,Región del Maule,Barrio Norte,3461761,shop,convenience,node,847527919.0
286472,-35.43199921,-71.67749786,,"Botilleria Sederap, 10 Sur, Villa Edén, La Florida, Talca, Provincia de Talca, Región del Maule, 3460000, Chile",10 Sur,,Talca,Región del Maule,La Florida,3460000,shop,alcohol,node,3156437879.0
291841,-35.44540024,-71.61699677,,"Calle 6½ Sur, Hacienda Las Rastras, San Miguel, Talca, Provincia de Talca, Región del Maule, 3461761, Chile",Calle 6½ Sur,,Talca,Región del Maule,San Miguel,3461761,highway,residential,way,443275056.0
310057,-35.4432222,-71.6864167,,"Chile, 266, 26 Sur, Villa Santa María de Colín, La Florida, Talca, Provincia de Talca, Región del Maule, 3460000, Chile",26 Sur,266,Talca,Región del Maule,La Florida,3460000,amenity,bank,node,3225845817.0
322616,-35.424541,-71.658126,,"Copec, 6 oriente, Villa San Luis, Barrio Norte, Talca, Provincia de Talca, Región del Maule, 3461761, Chile",6 oriente,,Talca,Región del Maule,Barrio Norte,3461761,amenity,fuel,node,5675407791.0
323157,-35.42050794,-71.66068679,,"Calle 4 Oriente, Villa San Luis, Barrio Norte, Talca, Provincia de Talca, Región del Maule, 3460000, Chile",Calle 4 Oriente,,Talca,Región del Maule,Barrio Norte,3460000,highway,residential,way,243827285.0
377105,-35.43949,-71.68267,,"Avenida Ignacio Carrera Pinto, Villa Los Tilos, La Florida, Talca, Provincia de Talca, Región del Maule, 3460000, Chile",Avenida Ignacio Carrera Pinto,,Talca,Región del Maule,La Florida,3460000,highway,primary,way,566828947.0
89955,-35.42890167,-71.6434021,,"Calle 1 Sur, Población Pedro Aguirre Cerda, Talca, Provincia de Talca, Región del Maule, 3461761, Chile",Calle 1 Sur,,Talca,Región del Maule,,3461761,highway,secondary,way,565603192.0
105409,-35.43510056,-71.67030334,,"Botillería España, Piduco, Población Diego Portales, La Florida, Talca, Provincia de Talca, Región del Maule, 3460000, Chile",Piduco,,Talca,Región del Maule,La Florida,3460000,craft,winery,node,3165873878.0
142252,-35.4029007,-71.64129639,,"8 Oriente A, Don Enrique, Lircay, Talca, Provincia de Talca, Región del Maule, 3461761, Chile",8 Oriente A,,Talca,Región del Maule,Lircay,3461761,highway,living_street,way,110458920.0
151059,-35.42581,-71.65659,,"1284, Calle 7 Oriente, Población Juan Antonio Ríos, Talca, Provincia de Talca, Región del Maule, 3461761, Chile",Calle 7 Oriente,1284,Talca,Región del Maule,,3461761,building,house,way,637043712.0
168526,-35.40631738,-71.64344415,,"Copec, Avenida Lircay, Don Enrique, Lircay, Talca, Provincia de Talca, Región del Maule, 3461761, Chile",Avenida Lircay,,Talca,Región del Maule,Lircay,3461761,amenity,fuel,node,6800720082.0
184275,-35.42875,-71.6477,,"Doña Carne, Calle 1 Sur, Villa Monte Baeza, Talca, Provincia de Talca, Región del Maule, 3461761, Chile",Calle 1 Sur,,Talca,Región del Maule,,3461761,shop,butcher,way,310249857.0
189312,-35.44760132,-71.69139862,,"29 Sur, Jardín del Valle, La Florida, Talca, Provincia de Talca, Región del Maule, 3460000, Chile",29 Sur,,Talca,Región del Maule,La Florida,3460000,highway,tertiary,way,34119127.0
222487,-35.40800095,-71.625,,"Revisión Técnica, Avenida 22 Oriente, Lircay, Talca, Provincia de Talca, Región del Maule, 3461761, Chile",Avenida 22 Oriente,,Talca,Región del Maule,Lircay,3461761,amenity,vehicle_inspection,way,1025684700.0
270060,-35.43510056,-71.67030334,,"Botillería España, Piduco, Población Diego Portales, La Florida, Talca, Provincia de Talca, Región del Maule, 3460000, Chile",Piduco,,Talca,Región del Maule,La Florida,3460000,craft,winery,node,3165873878.0
277737,-35.42979813,-71.61799622,,"7ma Compañía de Bomberos, Calle 5 Norte, Las Rastras, Esmeralda, Talca, Provincia de Talca, Región del Maule, 3461761, Chile",Calle 5 Norte,,Talca,Región del Maule,Esmeralda,3461761,amenity,fire_station,way,311674296.0
295360,-35.4526623,-71.6799248,,"34½ Sur B, Villa Doña Antonia 4, Maule Norte, Maule, Provincia de Talca, Región del Maule, 3460000, Chile",34½ Sur B,,,Región del Maule,,3460000,highway,living_street,way,110561069.0
305539,-35.41989899,-71.6115036,,"Calle 35½ Oriente, Valles del Country, Talca, Provincia de Talca, Región del Maule, 3461761, Chile",Calle 35½ Oriente,,Talca,Región del Maule,,3461761,highway,residential,way,311049467.0
338855,-35.42630005,-71.66280365,,"Doña cristina, Calle 1 Norte, Población Juan Antonio Ríos, Talca, Provincia de Talca, Región del Maule, 3460000, Chile",Calle 1 Norte,,Talca,Región del Maule,,3460000,building,yes,way,939148470.0
344526,-35.4171328,-71.6591046,,"Calle 8 Norte, Barrio Las Heras, Talca, Provincia de Talca, Región del Maule, 3460000, Chile",Calle 8 Norte,,Talca,Región del Maule,,3460000,highway,residential,way,563100918.0
352598,-35.43891,-71.68298,,"19 Sur, Villa Galilea D, La Florida, Talca, Provincia de Talca, Región del Maule, 3460000, Chile",19 Sur,,Talca,Región del Maule,La Florida,3460000,highway,tertiary,way,35185575.0
366989,-35.44212195,-71.65242725,,"Pasaje 12 Sur C, Población Cristi Gallo, Talca, Provincia de Talca, Región del Maule, 3461761, Chile",Pasaje 12 Sur C,,Talca,Región del Maule,,3461761,highway,residential,way,102212595.0
116553,-34.97869873,-71.25330353,,"Pasaje Apóstol Tadeo, Población Bombero Garrido, Curicó, Provincia de Curicó, Región del Maule, 3341353, Chile",Pasaje Apóstol Tadeo,,Curicó,Región del Maule,,3341353,highway,living_street,way,98641872.0
156377,-34.9762328,-71.24496235,,"Copec, Avenida Freire, Villa Cataluña, Curicó, Provincia de Curicó, Región del Maule, 3340814, Chile",Avenida Freire,,Curicó,Región del Maule,,3340814,amenity,fuel,way,423237253.0
156532,-34.9833074,-71.2416248,,"Farmacias Cruz Verde, Peña, Consistorial, Curicó, Provincia de Curicó, Región del Maule, 3342121, Chile",Peña,,Curicó,Región del Maule,,3342121,amenity,pharmacy,node,1469588039.0
193126,-34.98339844,-71.24160004,,"Farmacias Cruz Verde, Peña, Consistorial, Curicó, Provincia de Curicó, Región del Maule, 3342121, Chile",Peña,,Curicó,Región del Maule,,3342121,amenity,pharmacy,node,1469588039.0
193140,-34.9856987,-71.22669983,,"Farmacias Ahumada, Jesús Pons, Villa San Francisco, Curicó, Provincia de Curicó, Región del Maule, 3340000, Chile",Jesús Pons,,Curicó,Región del Maule,,3340000,amenity,pharmacy,node,1778833964.0
194910,-34.98690033,-71.23870087,,"310, Argomedo, Consistorial, Curicó, Provincia de Curicó, Región del Maule, 3342121, Chile",Argomedo,310,Curicó,Región del Maule,,3342121,place,house,way,135506402.0
239006,-34.584524,-70.9893182,,"Parroquia San Fernando Rey, 582, Cardenal Caro, Condominio Las Camelias, El Trapiche, San Fernando, Provincia de Colchagua, Región del Libertador General Bernardo O'Higgins, 3071524, Chile",Cardenal Caro,582,San Fernando,Región del Libertador General Bernardo O'Higgins,El Trapiche,3071524,amenity,place_of_worship,way,290408514.0
240472,-34.57559967,-70.9957962,,"Avelino Barros, Villa Conavicoop, San Fernando, Provincia de Colchagua, Región del Libertador General Bernardo O'Higgins, 3071379, Chile",Avelino Barros,,San Fernando,Región del Libertador General Bernardo O'Higgins,,3071379,highway,residential,way,562664396.0
241828,-34.57830048,-70.99569702,,"Doctor Sepúlveda, Villa Imperial, San Fernando, Provincia de Colchagua, Región del Libertador General Bernardo O'Higgins, 3071379, Chile",Doctor Sepúlveda,,San Fernando,Región del Libertador General Bernardo O'Higgins,,3071379,highway,residential,way,104029854.0
265542,-34.9864006,-71.24130249,,"496, Estado, Consistorial, Curicó, Provincia de Curicó, Región del Maule, 3342121, Chile",Estado,496,Curicó,Región del Maule,,3342121,place,house,way,150537896.0
302186,-34.98770142,-71.24389648,,"Jardín Infantil Rayen, 444, Avenida Bernardo O'Higgins, Nilahue, Curicó, Provincia de Curicó, Región del Maule, 3342121, Chile",Avenida Bernardo O'Higgins,444,Curicó,Región del Maule,,3342121,amenity,kindergarten,way,354239081.0
315578,-34.95999908,-71.21520233,,"Avenida Proyectada, Don Sebastián de Rauquén, Curicó, Provincia de Curicó, Región del Maule, 3400001, Chile",Avenida Proyectada,,Curicó,Región del Maule,,3400001,highway,residential,way,491989963.0
320473,-34.9797671,-71.2648674,,"Calle Bombero Garrido, Araucanía, Curicó, Provincia de Curicó, Región del Maule, 3341353, Chile",Calle Bombero Garrido,,Curicó,Región del Maule,,3341353,highway,residential,way,98641856.0
323615,-35.84289932,-71.60150146,,"The Church of Jesus Christ of Latter-day Saints, Max Jara, Villa Sara Lamothe, Linares, Provincia de Linares, Región del Maule, 3581004, Chile",Max Jara,,Linares,Región del Maule,,3581004,amenity,place_of_worship,way,590243584.0
329578,-34.58470154,-70.98529816,,"866, Chillán, Condominio Las Camelias, El Trapiche, San Fernando, Provincia de Colchagua, Región del Libertador General Bernardo O'Higgins, 3071118, Chile",Chillán,866,San Fernando,Región del Libertador General Bernardo O'Higgins,El Trapiche,3071118,place,house,node,6010611989.0
347108,-34.9769642,-71.24221,,"Comercial Tio Lelo, Avenida Freire, La Colmena, Curicó, Provincia de Curicó, Región del Maule, 3340814, Chile",Avenida Freire,,Curicó,Región del Maule,,3340814,shop,pet,node,5440303498.0
356635,-34.9708419,-71.2045129,,"Calle 2, Villa Los Huertos, Curicó, Provincia de Curicó, Región del Maule, 3400001, Chile",Calle 2,,Curicó,Región del Maule,,3400001,highway,residential,way,98404223.0
364963,-34.9839831,-71.215934,,"Camino Zapallar, La Labranza, Curicó, Provincia de Curicó, Región del Maule, 3400001, Chile",Camino Zapallar,,Curicó,Región del Maule,,3400001,highway,secondary,way,1023076069.0
365516,-34.979,-71.25757,,"Botillería el Vecino, 1041, Calle Presbítero Samuel Pérez, Población Bombero Garrido, Curicó, Provincia de Curicó, Región del Maule, 3341353, Chile",Calle Presbítero Samuel Pérez,1041,Curicó,Región del Maule,,3341353,shop,beverages,node,6800844285.0
369593,-34.976434,-71.239955,,"Tottus, 1220, Carmen, La Marqueza, Curicó, Provincia de Curicó, Región del Maule, 3340814, Chile",Carmen,1220,Curicó,Región del Maule,,3340814,shop,supermarket,way,667321866.0
114903,-34.97579956,-71.23609924,,"Manuel Correa, La Marqueza, Curicó, Provincia de Curicó, Región del Maule, 3340814, Chile",Manuel Correa,,Curicó,Región del Maule,,3340814,highway,tertiary,way,27314039.0
165503,-34.986566,-71.234483,,"Diego de Almagro, 30, Argomedo, Caupolicán, Curicó, Provincia de Curicó, Región del Maule, 3342121, Chile",Argomedo,30,Curicó,Región del Maule,,3342121,tourism,hotel,way,562641301.0
192327,-34.97600174,-71.24430084,,"Santa Fé, La Colmena, Curicó, Provincia de Curicó, Región del Maule, 3340814, Chile",Santa Fé,,Curicó,Región del Maule,,3340814,highway,tertiary,way,27945180.0
236985,-34.58810043,-70.98519897,,"Farmacias Ahumada, 902, Avenida Bernardo O'Higgins, Condominio Las Camelias, El Trapiche, San Fernando, Provincia de Colchagua, Región del Libertador General Bernardo O'Higgins, 3072268, Chile",Avenida Bernardo O'Higgins,902,San Fernando,Región del Libertador General Bernardo O'Higgins,El Trapiche,3072268,amenity,pharmacy,way,637026070.0
240585,-34.58639908,-70.98210144,,"1057, Avenida Manso de Velasco, Condominio Las Camelias, El Trapiche, San Fernando, Provincia de Colchagua, Región del Libertador General Bernardo O'Higgins, 3070116, Chile",Avenida Manso de Velasco,1057,San Fernando,Región del Libertador General Bernardo O'Higgins,El Trapiche,3070116,building,yes,way,550507522.0
254219,-34.97060013,-71.20690155,,"Calle 1, Villa Pucará, Curicó, Provincia de Curicó, Región del Maule, 3400001, Chile",Calle 1,,Curicó,Región del Maule,,3400001,highway,residential,way,98404222.0
255723,-34.57392755,-70.99828375,,"1373, Avenida Circunvalación, Villa Pedro Aguirre Cerda, San Fernando, Provincia de Colchagua, Región del Libertador General Bernardo O'Higgins, 3071937, Chile",Avenida Circunvalación,1373,San Fernando,Región del Libertador General Bernardo O'Higgins,,3071937,place,house,node,6030732820.0
260800,-34.9815167,-71.2420147,,"Modelo, Peña, Consistorial, Curicó, Provincia de Curicó, Región del Maule, 3342121, Chile",Peña,,Curicó,Región del Maule,,3342121,shop,bakery,node,1469588128.0
308299,-34.9660057,-71.221317,,"Profesora Graciela Bustamante, Las Brisas del Boldo, Curicó, Provincia de Curicó, Región del Maule, 3340814, Chile",Profesora Graciela Bustamante,,Curicó,Región del Maule,,3340814,highway,living_street,way,146578208.0
311502,-35.83639908,-71.61199951,,"Avenida Presidente Ibáñez, Frontera del Inca, Linares, Provincia de Linares, Región del Maule, 4300000, Chile",Avenida Presidente Ibáñez,,Linares,Región del Maule,,4300000,highway,tertiary,way,235328187.0
312066,-35.85169983,-71.60150146,,"Rengo, Villa Presidente Ibáñez, Linares, Provincia de Linares, Región del Maule, 3581004, Chile",Rengo,,Linares,Región del Maule,,3581004,highway,primary,way,1004434079.0
336453,-35.85210037,-71.60320282,,"Carlos del Campo Rivera, Villa Presidente Ibáñez, Pamparraza, Linares, Provincia de Linares, Región del Maule, 3581004, Chile",Carlos del Campo Rivera,,Linares,Región del Maule,,3581004,highway,living_street,way,93284664.0
341920,-34.58509827,-70.99069977,,"725, Carampangue, Condominio Las Camelias, El Trapiche, San Fernando, Provincia de Colchagua, Región del Libertador General Bernardo O'Higgins, 3071082, Chile",Carampangue,725,San Fernando,Región del Libertador General Bernardo O'Higgins,El Trapiche,3071082,building,yes,relation,7934967.0
366669,-35.846451,-71.5967463,,"Fashions Park, Independencia, Villa Sara Lamothe, Linares, Provincia de Linares, Región del Maule, 4300000, Chile",Independencia,,Linares,Región del Maule,,4300000,shop,clothes,way,1088956991.0
369195,-34.3931142,-72.0153181,,"Los Aromos, Población Santa Teresita, Pichilemu, Provincia de Cardenal Caro, Región del Libertador General Bernardo O'Higgins, 3220000, Chile",Los Aromos,,,Región del Libertador General Bernardo O'Higgins,,3220000,highway,secondary,way,391015070.0
369542,-34.9828,-71.2578599,,"Araucanía, Curicó, Provincia de Curicó, Región del Maule, 3341353, Chile",,,Curicó,Región del Maule,,3341353,highway,residential,way,99814736.0
374533,-34.9739137,-71.2547882,,"La Pinta, Villa La Reina, Curicó, Provincia de Curicó, Región del Maule, 3341353, Chile",La Pinta,,Curicó,Región del Maule,,3341353,highway,residential,way,563181107.0
161406,-34.98329926,-71.24160004,,"Farmacias Cruz Verde, Peña, Consistorial, Curicó, Provincia de Curicó, Región del Maule, 3342121, Chile",Peña,,Curicó,Región del Maule,,3342121,amenity,pharmacy,node,1469588039.0
203908,-34.97140121,-71.20400238,,"Calle A, Villa Pucará, Curicó, Provincia de Curicó, Región del Maule, 3400001, Chile",Calle A,,Curicó,Región del Maule,,3400001,highway,residential,way,98404245.0
243744,-34.9732806,-71.2495793,,"Las Tres Carabelas, Villa Costa Azul, Curicó, Provincia de Curicó, Región del Maule, 3341353, Chile",Las Tres Carabelas,,Curicó,Región del Maule,,3341353,highway,residential,way,99815462.0
257022,-34.57839966,-70.98840332,,"Ciclovía Av. Bernardo O'Higgins, Minuto Verde, Los Huertos, San Fernando, Provincia de Colchagua, Región del Libertador General Bernardo O'Higgins, 3071541, Chile",Ciclovía Av. Bernardo O'Higgins,,San Fernando,Región del Libertador General Bernardo O'Higgins,,3071541,highway,cycleway,way,560847777.0
277734,-34.98540115,-71.23480225,,"23, Estado, Caupolicán, Curicó, Provincia de Curicó, Región del Maule, 3342121, Chile",Estado,23,Curicó,Región del Maule,,3342121,place,house,way,100106336.0
349134,-34.99129868,-71.2338028,,"El Buen Chileno, Avenida Manso de Velasco, Caupolicán, Curicó, Provincia de Curicó, Región del Maule, 3342121, Chile",Avenida Manso de Velasco,,Curicó,Región del Maule,,3342121,shop,alcohol,node,1468867103.0
356718,-34.97698,-71.26292,,"Pasaje Santa Victoria, Población Bombero Garrido, Curicó, Provincia de Curicó, Región del Maule, 3341353, Chile",Pasaje Santa Victoria,,Curicó,Región del Maule,,3341353,highway,living_street,way,98641857.0
358822,-34.9708419,-71.2045129,,"Calle 2, Villa Los Huertos, Curicó, Provincia de Curicó, Región del Maule, 3400001, Chile",Calle 2,,Curicó,Región del Maule,,3400001,highway,residential,way,98404223.0
360721,-34.97359848,-71.2111969,,"Jardín Infantil Pin y Pon, 1885, Avenida Rauquén, Villa Alameda, Curicó, Provincia de Curicó, Región del Maule, 3400001, Chile",Avenida Rauquén,1885,Curicó,Región del Maule,,3400001,amenity,kindergarten,way,354239079.0
366324,-35.8432776,-71.6172019,,"Sady Zañartu, Linares, Provincia de Linares, Región del Maule, 3581004, Chile",Sady Zañartu,,Linares,Región del Maule,,3581004,highway,living_street,way,93459543.0
368921,-34.9774943,-71.2426648,,"Rentokil initial Chile, 1134, Peña, La Colmena, Curicó, Provincia de Curicó, Región del Maule, 3340814, Chile",Peña,1134,Curicó,Región del Maule,,3340814,shop,outdoor,node,5284946545.0
371206,-34.9817454,-71.2568134,,"Pasaje Abeto, Ricardo Rojas, Curicó, Provincia de Curicó, Región del Maule, 3341353, Chile",Pasaje Abeto,,Curicó,Región del Maule,,3341353,highway,living_street,way,99814685.0
377335,-34.9703221,-71.2354206,,"Avenida Circunvalación Paul Harris, Villa San Vicente de Paul, Curicó, Provincia de Curicó, Región del Maule, 3340814, Chile",Avenida Circunvalación Paul Harris,,Curicó,Región del Maule,,3340814,highway,secondary,way,561028057.0
117302,-34.97660065,-71.23889923,,"Tottus, 1220, Carmen, La Marqueza, Curicó, Provincia de Curicó, Región del Maule, 3340814, Chile",Carmen,1220,Curicó,Región del Maule,,3340814,shop,supermarket,way,667321866.0
130226,-34.97710037,-71.24739838,,"Anakena, Villa Cataluña, Curicó, Provincia de Curicó, Región del Maule, 3340814, Chile",Anakena,,Curicó,Región del Maule,,3340814,highway,residential,way,99864570.0
158053,-34.98619843,-71.24269867,,"601, Estado, Condominio Jardín del Sur, Curicó, Provincia de Curicó, Región del Maule, 3342121, Chile",Estado,601,Curicó,Región del Maule,,3342121,place,house,node,1634407779.0
165634,-34.98289871,-71.24510193,,"New York (Distribuidora Mayorista), 720, Manuel Montt, Condominio Jardín del Sur, Curicó, Provincia de Curicó, Región del Maule, 3342121, Chile",Manuel Montt,720,Curicó,Región del Maule,,3342121,shop,department_store,node,5612463029.0
238549,-34.57339859,-70.9957962,,"Alcibíades Roldán, Villa Imperial, San Fernando, Provincia de Colchagua, Región del Libertador General Bernardo O'Higgins, 3071937, Chile",Alcibíades Roldán,,San Fernando,Región del Libertador General Bernardo O'Higgins,,3071937,highway,residential,way,717382789.0
243834,-34.58610153,-70.98300171,,"780, Rancagua, Condominio Las Camelias, El Trapiche, San Fernando, Provincia de Colchagua, Región del Libertador General Bernardo O'Higgins, 3070116, Chile",Rancagua,780,San Fernando,Región del Libertador General Bernardo O'Higgins,El Trapiche,3070116,building,yes,way,630839526.0
258354,-34.99200058,-71.24849701,,"Avenida Balmaceda, Los Aromos, Curicó, Provincia de Curicó, Región del Maule, 3342121, Chile",Avenida Balmaceda,,Curicó,Región del Maule,,3342121,highway,secondary,way,561010468.0
264272,-34.5739291,-70.9982687,,"1373, Avenida Circunvalación, Villa Pedro Aguirre Cerda, San Fernando, Provincia de Colchagua, Región del Libertador General Bernardo O'Higgins, 3071937, Chile",Avenida Circunvalación,1373,San Fernando,Región del Libertador General Bernardo O'Higgins,,3071937,place,house,node,6030732820.0
276017,-34.98189926,-71.26049805,,"Pasaje San Sofia, Araucanía, Curicó, Provincia de Curicó, Región del Maule, 3341353, Chile",Pasaje San Sofia,,Curicó,Región del Maule,,3341353,highway,living_street,way,99814671.0
301273,-34.96780014,-71.22290039,,"Pasaje Alicia Morel, La Cañada del Boldo, Curicó, Provincia de Curicó, Región del Maule, 3340814, Chile",Pasaje Alicia Morel,,Curicó,Región del Maule,,3340814,highway,living_street,way,98841647.0
320228,-35.84489822,-71.60399628,,"Firestone, Avenida Aníbal León Bustos, Villa Independencia, Linares, Provincia de Linares, Región del Maule, 4300000, Chile",Avenida Aníbal León Bustos,,Linares,Región del Maule,,4300000,shop,car_repair,way,430807525.0
323282,-35.8368988,-71.61000061,,"Ciudad del Poeta, Frontera del Inca, Linares, Provincia de Linares, Región del Maule, 4300000, Chile",Ciudad del Poeta,,Linares,Región del Maule,,4300000,highway,residential,way,194053888.0
329728,-34.97750092,-71.24259949,,"Rentokil initial Chile, 1134, Peña, La Colmena, Curicó, Provincia de Curicó, Región del Maule, 3340814, Chile",Peña,1134,Curicó,Región del Maule,,3340814,shop,outdoor,node,5284946545.0
332198,-34.97750092,-71.24269867,,"Rentokil initial Chile, 1134, Peña, La Colmena, Curicó, Provincia de Curicó, Región del Maule, 3340814, Chile",Peña,1134,Curicó,Región del Maule,,3340814,shop,outdoor,node,5284946545.0
336574,-34.9884413,-71.2409788,,"Q'Chevere, 496, Villota, Caupolicán, Curicó, Provincia de Curicó, Región del Maule, 3342121, Chile",Villota,496,Curicó,Región del Maule,,3342121,amenity,restaurant,node,6481371192.0
344265,-34.99045,-71.23393,,"Carnicería, Avenida Manso de Velasco, Caupolicán, Curicó, Provincia de Curicó, Región del Maule, 3342121, Chile",Avenida Manso de Velasco,,Curicó,Región del Maule,,3342121,shop,butcher,node,1603047434.0
361792,-35.8458178,-71.5971336,,"Panadería Francesa, Manuel Rodríguez, Villa Sara Lamothe, Linares, Provincia de Linares, Región del Maule, 4300000, Chile",Manuel Rodríguez,,Linares,Región del Maule,,4300000,amenity,cafe,node,1131705667.0
365515,-34.979,-71.25757,,"Botillería el Vecino, 1041, Calle Presbítero Samuel Pérez, Población Bombero Garrido, Curicó, Provincia de Curicó, Región del Maule, 3341353, Chile",Calle Presbítero Samuel Pérez,1041,Curicó,Región del Maule,,3341353,shop,beverages,node,6800844285.0
366381,-34.9730559,-71.2223175,,"Puerto Aysén, Altos del Boldo, Curicó, Provincia de Curicó, Región del Maule, 3340000, Chile",Puerto Aysén,,Curicó,Región del Maule,,3340000,highway,residential,way,27553480.0
375493,-34.9883347,-71.2424234,,"Manuel Rodríguez, Consistorial, Curicó, Provincia de Curicó, Región del Maule, 3342121, Chile",Manuel Rodríguez,,Curicó,Región del Maule,,3342121,highway,tertiary,way,564754048.0
106224,-33.0444,-71.3763,,"Eco Farmacias, Avenida Valparaíso, Población Lasnibat, Villa Alemana, Provincia de Marga Marga, Región de Valparaíso, 6500000, Chile",Avenida Valparaíso,,Villa Alemana,Región de Valparaíso,,6500000,amenity,pharmacy,node,3118649340.0
109285,-18.45319939,-70.29979706,,"España / Edmundo Pérez Zujovic, Avenida España, Tierras Blancas, Arica, Provincia de Arica, Región de Arica y Parinacota, 1020759, Chile",Avenida España,,Arica,Región de Arica y Parinacota,,1020759,highway,bus_stop,node,7667989425.0
114339,-41.31930161,-72.98560333,,"Mall Paseo Puerto Varas, 666, San Francisco, Población Juan Costa, Puerto Varas, Provincia de Llanquihue, Región de Los Lagos, 5550596, Chile",San Francisco,666,,Región de Los Lagos,,5550596,shop,mall,way,304307058.0
123354,-33.04579926,-71.3911972,,"El Porteño, Avenida Valparaíso, Población Benito Juárez, Villa Alemana, Provincia de Marga Marga, Región de Valparaíso, 2450934, Chile",Avenida Valparaíso,,Villa Alemana,Región de Valparaíso,,2450934,shop,alcohol,node,5967809169.0
125090,-18.4769001,-70.29199982,,"Rodriguez, Tucapel, Población Olivarera, Arica, Provincia de Arica, Región de Arica y Parinacota, 1020759, Chile",Tucapel,,Arica,Región de Arica y Parinacota,,1020759,shop,tailor,node,4516433821.0
147138,-36.6101844,-72.1043225,,"Petrobras, Arauco, Chillán, Provincia de Diguillín, Región de Ñuble, 3800720, Chile",Arauco,,Chillán,Región de Ñuble,,3800720,amenity,fuel,way,490229857.0
149524,-33.0445977,-71.3810605,,"Copec, Población Lasnibat, Villa Alemana, Provincia de Marga Marga, Región de Valparaíso, 6500000, Chile",Copec,,Villa Alemana,Región de Valparaíso,,6500000,amenity,fuel,node,1734653030.0
154366,-33.05400085,-71.33830261,,"Almacén El Carmen, El Rincón, El Carmen, Villa Alemana, Provincia de Marga Marga, Región de Valparaíso, 6500000, Chile",El Rincón,,Villa Alemana,Región de Valparaíso,,6500000,shop,convenience,node,590628020.0
156510,-33.0442185,-71.3743913,,"Maicao, Avenida Valparaíso, Población Lasnibat, Villa Alemana, Provincia de Marga Marga, Región de Valparaíso, 2460435, Chile",Avenida Valparaíso,,Villa Alemana,Región de Valparaíso,,2460435,shop,perfumery,node,8461143883.0
173236,-33.04520035,-71.38929749,,"Sabor Manía, Avenida Valparaíso, Población Vicente Martínez, Villa Alemana, Provincia de Marga Marga, Región de Valparaíso, 2450934, Chile",Avenida Valparaíso,,Villa Alemana,Región de Valparaíso,,2450934,amenity,fast_food,node,9015685901.0
175788,-41.317547,-72.9855099,,"Spacio (Petrobras), 555, San Bernardo, Población Juan Costa, Puerto Varas, Provincia de Llanquihue, Región de Los Lagos, 5550451, Chile",San Bernardo,555,,Región de Los Lagos,,5550451,amenity,fast_food,node,1141516462.0
202044,-18.48660088,-70.29319763,,"Miguel Ahumada, Ampliación Olivarera, Arica, Provincia de Arica, Región de Arica y Parinacota, 1001110, Chile",Miguel Ahumada,,Arica,Región de Arica y Parinacota,,1001110,highway,residential,way,83820632.0
254660,-36.60100174,-72.09760284,,"Ciclovía Avenida Ecuador, Sargento Aldea, Chillán, Provincia de Diguillín, Región de Ñuble, 3800708, Chile",Ciclovía Avenida Ecuador,,Chillán,Región de Ñuble,,3800708,highway,cycleway,way,664151562.0
287147,-36.6092705,-72.1004112,,"Torre I Mall Arauco Chillán, 770, El Roble, Chillán, Provincia de Diguillín, Región de Ñuble, 3800720, Chile",El Roble,770,Chillán,Región de Ñuble,,3800720,shop,mall,way,633129563.0
288024,-41.32279968,-72.98519897,,"Florería, 1057, San Francisco, Población Juan Costa, Puerto Varas, Provincia de Llanquihue, Región de Los Lagos, 5550596, Chile",San Francisco,1057,,Región de Los Lagos,,5550596,shop,florist,node,8922784460.0
289375,-41.32279968,-72.98519897,,"Florería, 1057, San Francisco, Población Juan Costa, Puerto Varas, Provincia de Llanquihue, Región de Los Lagos, 5550596, Chile",San Francisco,1057,,Región de Los Lagos,,5550596,shop,florist,node,8922784460.0
290530,-36.62620163,-72.1140976,,"Los Copihues, Villa Los Campos de Doña Beatriz, Chillán, Provincia de Diguillín, Región de Ñuble, 3820000, Chile",Los Copihues,,Chillán,Región de Ñuble,,3820000,highway,tertiary,way,28064677.0
293180,-36.60839844,-72.11139679,,"Rosas, Carlos Ibáñez del Campo, Chillán, Provincia de Diguillín, Región de Ñuble, 3790246, Chile",Rosas,,Chillán,Región de Ñuble,,3790246,highway,residential,way,155534320.0
299168,-33.04299927,-71.41390228,,"Araus, Patricio Lynch, El Belloto, Quilpué, Provincia de Marga Marga, Región de Valparaíso, 2420622, Chile",Araus,,Quilpué,Región de Valparaíso,El Belloto,2420622,highway,residential,way,27612098.0
300259,-36.59780121,-72.10949707,,"Avenida Brasil, Población Ultraestación, Chillán, Provincia de Diguillín, Región de Ñuble, 3800720, Chile",Avenida Brasil,,Chillán,Región de Ñuble,,3800720,highway,secondary,way,147000733.0
304206,-33.04489899,-71.39050293,,"Unimarc, 1982, Avenida Valparaíso, Población Benito Juárez, Villa Alemana, Provincia de Marga Marga, Región de Valparaíso, 2450934, Chile",Avenida Valparaíso,1982,Villa Alemana,Región de Valparaíso,,2450934,shop,supermarket,way,385991369.0
311940,-33.04389954,-71.36720276,,"Felix, Avenida Valparaíso, Peñablanca, Villa Alemana, Provincia de Marga Marga, Región de Valparaíso, 6500000, Chile",Avenida Valparaíso,,Villa Alemana,Región de Valparaíso,Peñablanca,6500000,shop,hairdresser,node,6685249101.0
314605,-18.4776001,-70.3167038,,"Ilustre Municipalidad de Arica, General Manuel Baquedano, Edificio Vicuña Mackena, Arica, Provincia de Arica, Región de Arica y Parinacota, 1000224, Chile",General Manuel Baquedano,,Arica,Región de Arica y Parinacota,,1000224,amenity,townhall,node,4955775586.0
335212,-18.4803092,-70.2829605,,"Gral René Schneider / Cap. Avalos, René Schneider, Población Cabo Roca, Arica, Provincia de Arica, Región de Arica y Parinacota, 1020759, Chile",René Schneider,,Arica,Región de Arica y Parinacota,,1020759,highway,bus_stop,node,7667989543.0
335290,-33.0456684,-71.3549933,,"La Previa, 0689, Avenida Victoria, Villa Germania, Peñablanca, Villa Alemana, Provincia de Marga Marga, Región de Valparaíso, 6500000, Chile",Avenida Victoria,0689,Villa Alemana,Región de Valparaíso,Peñablanca,6500000,shop,alcohol,node,6731980446.0
340276,-33.04430008,-71.39520264,,"Edificio Vista Las Américas, El Roble, Población Benito Juárez, Villa Alemana, Provincia de Marga Marga, Región de Valparaíso, 2450934, Chile",El Roble,,Villa Alemana,Región de Valparaíso,,2450934,building,apartments,way,735358003.0
341854,-36.625465,-72.0842367,,"Los Castaños, Nueva Río Viejo, Chillán, Provincia de Diguillín, Región de Ñuble, 3800708, Chile",Los Castaños,,Chillán,Región de Ñuble,,3800708,highway,living_street,way,562367943.0
343612,-18.48049927,-70.30729675,,"José Victorino Lastarría / Lautaro, José Victorino Lastarria, Magisterio, Arica, Provincia de Arica, Región de Arica y Parinacota, 1000434, Chile",José Victorino Lastarria,,Arica,Región de Arica y Parinacota,,1000434,highway,bus_stop,node,7667989189.0
343845,-18.47640038,-70.29180145,,"Imperio Games, Tucapel, Barrio San José, Arica, Provincia de Arica, Región de Arica y Parinacota, 1020759, Chile",Tucapel,,Arica,Región de Arica y Parinacota,,1020759,amenity,internet_cafe,node,4516433819.0
351729,-36.62423395,-72.0942016,,"Avenida Alonso de Ercilla, Población Mardones, Chillán, Provincia de Diguillín, Región de Ñuble, 3780000, Chile",Avenida Alonso de Ercilla,,Chillán,Región de Ñuble,,3780000,highway,secondary,way,154764901.0
352334,-41.3317745,-72.9684757,,"Minimarket El Internacional, Avenida Colón, Población Juan Minte, Puerto Varas, Provincia de Llanquihue, Región de Los Lagos, 5550988, Chile",Avenida Colón,,,Región de Los Lagos,,5550988,shop,convenience,node,9945785861.0
355662,-36.6075035,-72.092804,,"414, Avenida Argentina, Chillancito, Chillán, Provincia de Diguillín, Región de Ñuble, 3800708, Chile",Avenida Argentina,414,Chillán,Región de Ñuble,,3800708,place,house,way,147223040.0
356856,-18.4719003,-70.2918134,,"Mercado Loa, Avenida Loa, Barrio San José, Arica, Provincia de Arica, Región de Arica y Parinacota, 1020759, Chile",Avenida Loa,,Arica,Región de Arica y Parinacota,,1020759,amenity,marketplace,way,351910822.0
360660,-36.6011675,-72.1053584,,"Claudio Arrau, Sargento Aldea, Chillán, Provincia de Diguillín, Región de Ñuble, 3790246, Chile",Claudio Arrau,,Chillán,Región de Ñuble,,3790246,highway,residential,way,146693164.0
367971,-33.0370443,-71.3553221,,"Riquelme, El Páramo, Peñablanca, Villa Alemana, Provincia de Marga Marga, Región de Valparaíso, 6500000, Chile",Riquelme,,Villa Alemana,Región de Valparaíso,Peñablanca,6500000,highway,residential,way,174378573.0
369277,-36.6047925,-72.061804,,"San Luis Beltrán, Los Domínicos, Chillán, Provincia de Diguillín, Región de Ñuble, 3800708, Chile",San Luis Beltrán,,Chillán,Región de Ñuble,,3800708,highway,residential,way,491945752.0
371988,-33.04319,-71.37491,,"96, Condell, Población Lasnibat, Villa Alemana, Provincia de Marga Marga, Región de Valparaíso, 6500000, Chile",Condell,96,Villa Alemana,Región de Valparaíso,,6500000,shop,chemist,node,8984386101.0
376955,-36.5992805,-72.1021106,,"Avenida Ecuador, Sargento Aldea, Chillán, Provincia de Diguillín, Región de Ñuble, 3800720, Chile",Avenida Ecuador,,Chillán,Región de Ñuble,,3800720,highway,primary,way,1000627185.0
138126,-33.04359818,-71.37889862,,"Edificio Chocolate, Reinicke, Población Lasnibat, Villa Alemana, Provincia de Marga Marga, Región de Valparaíso, 6500000, Chile",Reinicke,,Villa Alemana,Región de Valparaíso,,6500000,building,yes,way,479762339.0
146638,-18.48756641,-70.2884861,,"Petrobras, Diego Portales, Ampliación Olivarera, Arica, Provincia de Arica, Región de Arica y Parinacota, 1001110, Chile",Diego Portales,,Arica,Región de Arica y Parinacota,,1001110,shop,yes,node,1813245057.0
147136,-36.6090175,-72.093481,,"Petrobras, Avenida Argentina, Chillancito, Chillán, Provincia de Diguillín, Región de Ñuble, 3800720, Chile",Avenida Argentina,,Chillán,Región de Ñuble,,3800720,amenity,fuel,way,147224514.0
149488,-32.92129898,-71.5164032,,"Maroto, Condominio Embassy, Concón, Provincia de Valparaíso, Región de Valparaíso, 2510000, Chile",Maroto,,,Región de Valparaíso,,2510000,highway,tertiary,way,24963662.0
156363,-18.49042795,-70.30209495,,"Punto Copec, Avenida Senador Luis Valente Rossi, Las Palmas, Arica, Provincia de Arica, Región de Arica y Parinacota, 1001110, Chile",Avenida Senador Luis Valente Rossi,,Arica,Región de Arica y Parinacota,,1001110,amenity,fast_food,way,659803264.0
157783,-33.0439753,-71.3688032,,"CorreosChile, Avenida Valparaíso, Peñablanca, Villa Alemana, Provincia de Marga Marga, Región de Valparaíso, 6500000, Chile",Avenida Valparaíso,,Villa Alemana,Región de Valparaíso,Peñablanca,6500000,amenity,post_office,node,6405410605.0
165514,-32.92013575,-71.50908585,,"Estacionamiento La Perla del Pacífico, Avenida Borgoño, Gabriela Mistral, Concón, Provincia de Valparaíso, Región de Valparaíso, 2510000, Chile",Avenida Borgoño,,,Región de Valparaíso,,2510000,amenity,parking,way,995355367.0
165933,-41.33169937,-72.96880341,,"Minimarket El Internacional, Avenida Colón, Población Juan Minte, Puerto Varas, Provincia de Llanquihue, Región de Los Lagos, 5550988, Chile",Avenida Colón,,,Región de Los Lagos,,5550988,shop,convenience,node,3655933136.0
166206,-41.33129883,-72.97119904,,"F-12, Avenida Colón, Población Los Canelos, Puerto Varas, Provincia de Llanquihue, Región de Los Lagos, 5550988, Chile",Avenida Colón,F-12,,Región de Los Lagos,,5550988,place,house,node,8933281945.0
166235,-18.4769001,-70.29199982,,"Rodriguez, Tucapel, Población Olivarera, Arica, Provincia de Arica, Región de Arica y Parinacota, 1020759, Chile",Tucapel,,Arica,Región de Arica y Parinacota,,1020759,shop,tailor,node,4516433821.0
193074,-36.59550095,-72.1072998,,"Palumbo, 134, Avenida Libertador Bernardo O'Higgins, Villa Ferrocar, Chillán, Provincia de Diguillín, Región de Ñuble, 3800720, Chile",Avenida Libertador Bernardo O'Higgins,134,Chillán,Región de Ñuble,,3800720,shop,hairdresser,node,4673211689.0
193181,-18.4843998,-70.30709839,,"Farmacias Ahumada, 1402, 18 de Septiembre, Magisterio, Arica, Provincia de Arica, Región de Arica y Parinacota, 1001110, Chile",18 de Septiembre,1402,Arica,Región de Arica y Parinacota,,1001110,amenity,pharmacy,way,214015931.0
196677,-32.63430023,-71.42389679,,"475, Isidro Gaete, Maitencillo, Puchuncaví, Provincia de Valparaíso, Región de Valparaíso, 2500000, Chile",Isidro Gaete,475,,Región de Valparaíso,,2500000,amenity,parking,way,543912668.0
199900,-36.6012001,-72.10140228,,"Dulceria Alemana, Itata, Sargento Aldea, Chillán, Provincia de Diguillín, Región de Ñuble, 3800708, Chile",Itata,,Chillán,Región de Ñuble,,3800708,amenity,cafe,node,1614692131.0
204743,-18.47809982,-70.31809998,,"JM Express, 18 de Septiembre, Edificio Vicuña Mackena, Arica, Provincia de Arica, Región de Arica y Parinacota, 1000434, Chile",18 de Septiembre,,Arica,Región de Arica y Parinacota,,1000434,office,yes,node,5249415130.0
221106,-36.60760117,-72.10109711,,"567, 5 de Abril, Sargento Aldea, Chillán, Provincia de Diguillín, Región de Ñuble, 3800720, Chile",5 de Abril,567,Chillán,Región de Ñuble,,3800720,building,house,way,495080930.0
235102,-33.0398523,-71.3732178,,"Madrid, Población Lasnibat, Peñablanca, Villa Alemana, Provincia de Marga Marga, Región de Valparaíso, 6500000, Chile",Madrid,,Villa Alemana,Región de Valparaíso,Peñablanca,6500000,highway,tertiary,way,290450303.0
247183,-33.0444549,-71.3741297,,"Santa Ana, Pasaje Oriana, Población Lasnibat, Villa Alemana, Provincia de Marga Marga, Región de Valparaíso, 2460435, Chile",Pasaje Oriana,,Villa Alemana,Región de Valparaíso,,2460435,shop,butcher,way,632012527.0
255248,-33.04959869,-71.39050293,,"Alcalde Rodolfo Galleguillos Gatica, Villa Andrea 2, Villa Alemana, Provincia de Marga Marga, Región de Valparaíso, 2450934, Chile",Alcalde Rodolfo Galleguillos Gatica,,Villa Alemana,Región de Valparaíso,,2450934,highway,tertiary,way,176154637.0
263077,-32.92029953,-71.51830292,,"Santa Brasa del Mar, Santa Elena, Villa Betteley, Concón, Provincia de Valparaíso, Región de Valparaíso, 2510000, Chile",Santa Elena,,,Región de Valparaíso,,2510000,amenity,restaurant,node,1082767865.0
273306,-32.93389893,-71.53620148,,"La Farine - Pan a la antigua, 118, Avenida Concón Reñaca, Vista al Mar, Concón, Provincia de Valparaíso, Región de Valparaíso, 2510513, Chile",Avenida Concón Reñaca,118,,Región de Valparaíso,,2510513,shop,bakery,node,7246052638.0
287153,-32.7876606,-71.1895066,,"BCI, José Joaquín Pérez, La Calera, Provincia de Quillota, Región de Valparaíso, 2290000, Chile",José Joaquín Pérez,,,Región de Valparaíso,,2290000,amenity,bank,way,721008297.0
303125,-33.04150009,-71.36380005,,"Ebe, Camilo Henríquez, Peñablanca, Villa Alemana, Provincia de Marga Marga, Región de Valparaíso, 6500000, Chile",Camilo Henríquez,,Villa Alemana,Región de Valparaíso,Peñablanca,6500000,shop,convenience,node,5662144353.0
303549,-32.9203357,-71.5183186,,"Santa Brasa del Mar, Santa Elena, Villa Betteley, Concón, Provincia de Valparaíso, Región de Valparaíso, 2510000, Chile",Santa Elena,,,Región de Valparaíso,,2510000,amenity,restaurant,node,1082767865.0
303636,-33.04150009,-71.36380005,,"Ebe, Camilo Henríquez, Peñablanca, Villa Alemana, Provincia de Marga Marga, Región de Valparaíso, 6500000, Chile",Camilo Henríquez,,Villa Alemana,Región de Valparaíso,Peñablanca,6500000,shop,convenience,node,5662144353.0
309380,-41.33789825,-72.97119904,,"2086, Pasaje Sergio Cárdenas, Brisas 8, Puerto Varas, Provincia de Llanquihue, Región de Los Lagos, 5550988, Chile",Pasaje Sergio Cárdenas,2086,,Región de Los Lagos,,5550988,place,house,node,8931152505.0
309583,-36.6076572,-72.1126233,,"Maipón, Carlos Ibáñez del Campo, Chillán, Provincia de Diguillín, Región de Ñuble, 3790246, Chile",Maipón,,Chillán,Región de Ñuble,,3790246,highway,tertiary,way,491706327.0
309936,-36.60100174,-72.09760284,,"Ciclovía Avenida Ecuador, Sargento Aldea, Chillán, Provincia de Diguillín, Región de Ñuble, 3800708, Chile",Ciclovía Avenida Ecuador,,Chillán,Región de Ñuble,,3800708,highway,cycleway,way,664151562.0
310217,-33.05189896,-71.39050293,,"Alcalde Rodolfo Galleguillos Gatica, Villa Andrea 2, Villa Alemana, Provincia de Marga Marga, Región de Valparaíso, 2450934, Chile",Alcalde Rodolfo Galleguillos Gatica,,Villa Alemana,Región de Valparaíso,,2450934,highway,tertiary,way,317621781.0
310784,-41.32899857,-72.96070099,,"Redbanc Santander, Avenida Los Colonos, Puerto Chico, Puerto Varas, Provincia de Llanquihue, Región de Los Lagos, 5550096, Chile",Avenida Los Colonos,,,Región de Los Lagos,,5550096,amenity,atm,node,2712378786.0
333560,-33.6150937,-71.6085767,,"Avenida Chile, Condominio Mirador Las Rocas del Valle, Llo Lleo, San Antonio, Provincia de San Antonio, Región de Valparaíso, 2720000, Chile",Avenida Chile,,San Antonio,Región de Valparaíso,Llo Lleo,2720000,highway,primary,way,219610714.0
333706,-36.588844,-72.0857018,,"Alcalde Flores Millán, Hacienda Quilamapu, Chillán, Provincia de Diguillín, Región de Ñuble, 3800381, Chile",Alcalde Flores Millán,,Chillán,Región de Ñuble,,3800381,highway,tertiary,way,157041063.0
334010,-41.3170971,-72.9847189,,"340, San Francisco, Población Juan Costa, Puerto Varas, Provincia de Llanquihue, Región de Los Lagos, 5550451, Chile",San Francisco,340,,Región de Los Lagos,,5550451,place,house,node,8923606207.0
335175,-33.0586522,-71.3693245,,"Paraiso Gentile, José Miguel Carrera, El Peumo, Peñablanca, Villa Alemana, Provincia de Marga Marga, Región de Valparaíso, 6500000, Chile",José Miguel Carrera,,Villa Alemana,Región de Valparaíso,Peñablanca,6500000,shop,convenience,node,3099305208.0
337190,-36.63097275,-72.0882524,,"San Ignacio, Villa Doña Isabel, Chillán, Provincia de Diguillín, Región de Ñuble, 3780000, Chile",San Ignacio,,Chillán,Región de Ñuble,,3780000,highway,tertiary,way,446004701.0
343803,-18.4880516,-70.313225,,"Rafael Sotomayor, Magisterio, Arica, Provincia de Arica, Región de Arica y Parinacota, 1000434, Chile",Rafael Sotomayor,,Arica,Región de Arica y Parinacota,,1000434,highway,secondary,way,83824780.0
349254,-36.6115155,-72.1035917,,"Chillán, Provincia de Diguillín, Región de Ñuble, 3800720, Chile",,,Chillán,Región de Ñuble,,3800720,highway,residential,way,998464150.0
358307,-18.4882156,-70.2874602,,"Garaje Don Nicanor Barriga, Diego Portales, Ampliación Olivarera, Arica, Provincia de Arica, Región de Arica y Parinacota, 1001110, Chile",Diego Portales,,Arica,Región de Arica y Parinacota,,1001110,tourism,hotel,node,4845962021.0
360057,-36.62099838,-72.1115036,,"Palermo, Población El Esfuerzo, Chillán, Provincia de Diguillín, Región de Ñuble, 3780000, Chile",Palermo,,Chillán,Región de Ñuble,,3780000,highway,tertiary,way,149984775.0
363999,-33.0462088,-71.3558788,,"Alessandra, Villa Germania, Peñablanca, Villa Alemana, Provincia de Marga Marga, Región de Valparaíso, 6500000, Chile",Alessandra,,Villa Alemana,Región de Valparaíso,Peñablanca,6500000,highway,residential,way,27706570.0
371310,-32.7866516,-71.2125034,,"Traiguen, La Calera, Provincia de Quillota, Región de Valparaíso, 2290000, Chile",Traiguen,,,Región de Valparaíso,,2290000,highway,living_street,way,91952314.0
109023,-41.31549835,-72.99069977,,"Bodega Rengifo Puerto Varas, 950, Quintanilla, Villa Los Presidentes 1, Puerto Varas, Provincia de Llanquihue, Región de Los Lagos, 5550451, Chile",Quintanilla,950,,Región de Los Lagos,,5550451,shop,convenience,node,4367459300.0
123358,-36.6271019,-72.11049652,,"Ganaderos, Villa Los Campos de Doña Beatriz, Chillán, Provincia de Diguillín, Región de Ñuble, 3780000, Chile",Ganaderos,,Chillán,Región de Ñuble,,3780000,highway,residential,way,28590251.0
123545,-36.61159897,-72.11250305,,"Rosas, Carlos Ibáñez del Campo, Chillán, Provincia de Diguillín, Región de Ñuble, 3790246, Chile",Rosas,,Chillán,Región de Ñuble,,3790246,highway,residential,way,155534320.0
128977,-33.05830002,-71.35510254,,"Pasaje Bernardo Leighton, Los Boldos, Villa Alemana, Provincia de Marga Marga, Región de Valparaíso, 6500000, Chile",Pasaje Bernardo Leighton,,Villa Alemana,Región de Valparaíso,,6500000,highway,living_street,way,354099910.0
138446,-36.6169014,-72.10179901,,"Unimarc, 866, Avenida Collín, Población Rosita O'Higgins, Chillán, Provincia de Diguillín, Región de Ñuble, 3780000, Chile",Avenida Collín,866,Chillán,Región de Ñuble,,3780000,shop,supermarket,way,102927367.0
147889,-41.31230164,-72.98259735,,"220, Decher, Mirador de Philippi, Puerto Varas, Provincia de Llanquihue, Región de Los Lagos, 5550451, Chile",Decher,220,,Región de Los Lagos,,5550451,place,house,node,8907372823.0
150392,-18.48990105,-70.29010295,,"Copec, 18 Septiembre, Arica, Provincia de Arica, Región de Arica y Parinacota, 1001110, Chile",18 Septiembre,,Arica,Región de Arica y Parinacota,,1001110,shop,yes,node,1446789315.0
150619,-41.3168735,-72.9831441,,"Emporio Mudolph, 211, Walker Martínez, Población Rodolfo Philippi (Ex-Corvi), Puerto Varas, Provincia de Llanquihue, Región de Los Lagos, 5550451, Chile",Walker Martínez,211,,Región de Los Lagos,,5550451,shop,convenience,node,4599840949.0
151631,-18.473896,-70.30353,,"Copec, Enrique Corbo, Arica, Provincia de Arica, Región de Arica y Parinacota, 1020759, Chile",Enrique Corbo,,Arica,Región de Arica y Parinacota,,1020759,shop,yes,way,788321575.0
153353,-18.4687045,-70.3075974,,"Arica Strip Center, 157, Avenida Diego Portales, Conjunto Habitacional Pukara, Chinchorro, Arica, Provincia de Arica, Región de Arica y Parinacota, 1000000, Chile",Avenida Diego Portales,157,Arica,Región de Arica y Parinacota,,1000000,shop,shopping_centre,way,607983163.0
154284,-36.61608475,-72.103105,,"Shell, Avenida Collín, Población Rosita O'Higgins, Chillán, Provincia de Diguillín, Región de Ñuble, 3780000, Chile",Avenida Collín,,Chillán,Región de Ñuble,,3780000,amenity,fuel,node,410046779.0
156181,-18.4549683,-70.29458045,,"Lavamax, Santiago Arata Gandolfo, Condominio San Marcos, Arica, Provincia de Arica, Región de Arica y Parinacota, 1020759, Chile",Santiago Arata Gandolfo,,Arica,Región de Arica y Parinacota,,1020759,amenity,car_wash,node,3560221051.0
156269,-41.3192982,-72.9856036,,"Mall Paseo Puerto Varas, 666, San Francisco, Población Juan Costa, Puerto Varas, Provincia de Llanquihue, Región de Los Lagos, 5550596, Chile",San Francisco,666,,Región de Los Lagos,,5550596,shop,mall,way,304307058.0
156495,-36.6097346,-72.1018723,,"Preunic, Galería Sur, Chillán, Provincia de Diguillín, Región de Ñuble, 3800720, Chile",Galería Sur,,Chillán,Región de Ñuble,,3800720,shop,yes,way,446453991.0
161934,-18.47229958,-70.30269623,,"Catucan, Raúl del Canto, Arica, Provincia de Arica, Región de Arica y Parinacota, 1020759, Chile",Raúl del Canto,,Arica,Región de Arica y Parinacota,,1020759,shop,beverages,node,4536174511.0
165413,-18.47900009,-70.31839752,,"WOM, Paseo Peatonal 21 de Mayo, Edificio Vicuña Mackena, Arica, Provincia de Arica, Región de Arica y Parinacota, 1000224, Chile",Paseo Peatonal 21 de Mayo,,Arica,Región de Arica y Parinacota,,1000224,shop,mobile_phone,node,5253017155.0
174941,-33.04740143,-71.41329956,,"Caletera V Centenario, Belloto Centro, El Belloto, Quilpué, Provincia de Marga Marga, Región de Valparaíso, 2421183, Chile",Caletera V Centenario,,Quilpué,Región de Valparaíso,El Belloto,2421183,highway,living_street,way,602745987.0
177646,-36.60100174,-72.09760284,,"Ciclovía Avenida Ecuador, Sargento Aldea, Chillán, Provincia de Diguillín, Región de Ñuble, 3800708, Chile",Ciclovía Avenida Ecuador,,Chillán,Región de Ñuble,,3800708,highway,cycleway,way,664151562.0
187788,-33.04040146,-71.35230255,,"Licorería Criolla, 425, Baquedano, El Páramo, Peñablanca, Villa Alemana, Provincia de Marga Marga, Región de Valparaíso, 6500000, Chile",Baquedano,425,Villa Alemana,Región de Valparaíso,Peñablanca,6500000,shop,alcohol,node,6672828300.0
192877,-33.04779816,-71.34850311,,"Lider, Camino Troncal, Villa Germania, Peñablanca, Villa Alemana, Provincia de Marga Marga, Región de Valparaíso, 6500000, Chile",Camino Troncal,,Villa Alemana,Región de Valparaíso,Peñablanca,6500000,shop,supermarket,way,370952990.0
193016,-36.60929871,-72.10189819,,"Farmacias Ahumada, 702, 5 de Abril, Chillán, Provincia de Diguillín, Región de Ñuble, 3800720, Chile",5 de Abril,702,Chillán,Región de Ñuble,,3800720,amenity,pharmacy,node,369660933.0
203694,-36.60169983,-72.09429932,,"Ciclovía Avenida Ecuador, Sargento Aldea, Chillán, Provincia de Diguillín, Región de Ñuble, 3800708, Chile",Ciclovía Avenida Ecuador,,Chillán,Región de Ñuble,,3800708,highway,cycleway,way,664151562.0
219897,-41.31639862,-72.98459625,,"El Patio de Don Enrique, San Francisco, Mirador de Philippi, Puerto Varas, Provincia de Llanquihue, Región de Los Lagos, 5550451, Chile",San Francisco,,,Región de Los Lagos,,5550451,building,yes,way,270452478.0
224473,-36.6259841,-72.099364,,"Barros Arana, Población El Roble, Chillán, Provincia de Diguillín, Región de Ñuble, 3780000, Chile",Barros Arana,,Chillán,Región de Ñuble,,3780000,highway,primary,way,916076314.0
231665,-33.04430008,-71.37760162,,"Dantoni, 988 Local 2, Avenida Valparaíso, Población Lasnibat, Villa Alemana, Provincia de Marga Marga, Región de Valparaíso, 6500000, Chile",Avenida Valparaíso,988 Local 2,Villa Alemana,Región de Valparaíso,,6500000,shop,bakery,node,5014334623.0
271725,-41.3173898,-72.985478,,"Petrobras, 555, San Bernardo, Población Juan Costa, Puerto Varas, Provincia de Llanquihue, Región de Los Lagos, 5550451, Chile",San Bernardo,555,,Región de Los Lagos,,5550451,amenity,fuel,node,181521294.0
287081,-41.32849884,-72.97319794,,"861, Los Manzanos, Población Municipal III, Puerto Varas, Provincia de Llanquihue, Región de Los Lagos, 5550988, Chile",Los Manzanos,861,,Región de Los Lagos,,5550988,place,house,node,8920046213.0
300306,-36.59790039,-72.10959625,,"Av. BRASIL / ITATA, Avenida Brasil, Población Ultraestación, Chillán, Provincia de Diguillín, Región de Ñuble, 3800720, Chile",Avenida Brasil,,Chillán,Región de Ñuble,,3800720,highway,bus_stop,node,7667118326.0
300911,-18.4571991,-70.28759766,,"Los Industriales, Barros Arana, Villa Los Industriales, Arica, Provincia de Arica, Región de Arica y Parinacota, 1020759, Chile",Barros Arana,,Arica,Región de Arica y Parinacota,,1020759,shop,convenience,node,6143653728.0
309193,-36.60800171,-72.1344986,,"The Church of Jesus Christ of Latter-day Saints, 1145, Avenida Antártica Chilena, Población Zañartu, Chillán, Provincia de Diguillín, Región de Ñuble, 3790246, Chile",Avenida Antártica Chilena,1145,Chillán,Región de Ñuble,,3790246,amenity,place_of_worship,node,2406513845.0
310346,-18.47730064,-70.31860352,,"Feria Santa Blanca, 18 de Septiembre, Edificio Vicuña Mackena, Arica, Provincia de Arica, Región de Arica y Parinacota, 1000434, Chile",18 de Septiembre,,Arica,Región de Arica y Parinacota,,1000434,building,commercial,way,457239303.0
321799,-33.04460144,-71.38349915,,"Santa Ana, 1149, Avenida Valparaíso, Villarrica, Villa Alemana, Provincia de Marga Marga, Región de Valparaíso, 2450934, Chile",Avenida Valparaíso,1149,Villa Alemana,Región de Valparaíso,,2450934,shop,chemist,node,5683123935.0
329737,-36.626962,-72.098374,,"Colo Colo, Población Mardones, Chillán, Provincia de Diguillín, Región de Ñuble, 3780000, Chile",Colo Colo,,Chillán,Región de Ñuble,,3780000,highway,residential,way,28039348.0
337191,-33.04449844,-71.38150024,,"Peluquería Canina Peluditos II, 1293, Avenida Valparaíso, Villarrica, Villa Alemana, Provincia de Marga Marga, Región de Valparaíso, 6500000, Chile",Avenida Valparaíso,1293,Villa Alemana,Región de Valparaíso,,6500000,shop,hairdresser,node,6758044768.0
346229,-18.4769001,-70.29199982,,"Rodriguez, Tucapel, Población Olivarera, Arica, Provincia de Arica, Región de Arica y Parinacota, 1020759, Chile",Tucapel,,Arica,Región de Arica y Parinacota,,1020759,shop,tailor,node,4516433821.0
348246,-18.4770497,-70.292016,,"Isaias II, 2334, Tucapel, Población Olivarera, Arica, Provincia de Arica, Región de Arica y Parinacota, 1020759, Chile",Tucapel,2334,Arica,Región de Arica y Parinacota,,1020759,amenity,pharmacy,node,4516433820.0
349146,-18.4715385,-70.2853393,,"Manuel Bulnes / Los Cipreses, Manuel Bulnes, Arica, Provincia de Arica, Región de Arica y Parinacota, 1020759, Chile",Manuel Bulnes,,Arica,Región de Arica y Parinacota,,1020759,highway,bus_stop,node,7667989222.0
349185,-18.4713292,-70.2870633,,"Fernanda, Tucapel, Barrio San José, Arica, Provincia de Arica, Región de Arica y Parinacota, 1020759, Chile",Tucapel,,Arica,Región de Arica y Parinacota,,1020759,amenity,bar,node,6133478133.0
350184,-18.47130013,-70.28710175,,"Fernanda, Tucapel, Barrio San José, Arica, Provincia de Arica, Región de Arica y Parinacota, 1020759, Chile",Tucapel,,Arica,Región de Arica y Parinacota,,1020759,amenity,bar,node,6133478133.0
358701,-36.6151606,-72.0888358,,"360, Avenida España, Ampliación Purén, Chillán, Provincia de Diguillín, Región de Ñuble, 3800708, Chile",Avenida España,360,Chillán,Región de Ñuble,,3800708,building,house,way,542521261.0
364912,-33.0518251,-71.3829044,,"Huanhualí, Villa John Kennedy, Villa Alemana, Provincia de Marga Marga, Región de Valparaíso, 2450934, Chile",Huanhualí,,Villa Alemana,Región de Valparaíso,,2450934,highway,tertiary,way,820292153.0
365501,-41.3241693,-72.9813175,,"0153, Avenida Colón, Sector Los Rosales, Puerto Varas, Provincia de Llanquihue, Región de Los Lagos, 5550596, Chile",Avenida Colón,0153,,Región de Los Lagos,,5550596,place,house,node,8917515898.0
367056,-41.3165791,-72.9849451,,"Green Food, 411, Walker Martínez, Población Juan Costa, Puerto Varas, Provincia de Llanquihue, Región de Los Lagos, 5550451, Chile",Walker Martínez,411,,Región de Los Lagos,,5550451,amenity,restaurant,node,1141516469.0
371309,-32.7864247,-71.1916002,,"Gedeon, Caupolicán, La Calera, Provincia de Quillota, Región de Valparaíso, 2290000, Chile",Caupolicán,,,Región de Valparaíso,,2290000,shop,bicycle,node,4384182890.0
372664,-36.5984436,-72.1052856,,"KTM, 275, Avenida Ecuador, Sargento Aldea, Chillán, Provincia de Diguillín, Región de Ñuble, 3800720, Chile",Avenida Ecuador,275,Chillán,Región de Ñuble,,3800720,shop,outdoor,node,4820612035.0
375092,-33.0445294,-71.3827232,,"Carmona, 1385, Avenida Valparaíso, Villarrica, Villa Alemana, Provincia de Marga Marga, Región de Valparaíso, 6500000, Chile",Avenida Valparaíso,1385,Villa Alemana,Región de Valparaíso,,6500000,shop,hardware,node,7081424794.0
376333,-41.31283725,-72.99473268,,"890, Palacio de la Moneda, Villa Los Presidentes 1, Puerto Varas, Provincia de Llanquihue, Región de Los Lagos, 5550451, Chile",Palacio de la Moneda,890,,Región de Los Lagos,,5550451,place,house,node,8905332761.0
377309,-33.0521057,-71.3742147,,"895, Maturana, Población Lasnibat, Villa Alemana, Provincia de Marga Marga, Región de Valparaíso, 6500000, Chile",Maturana,895,Villa Alemana,Región de Valparaíso,,6500000,building,house,way,442361577.0
89956,-36.60589981,-72.10870361,,"593, Avenida Libertador Bernardo O'Higgins, Sargento Aldea, Chillán, Provincia de Diguillín, Región de Ñuble, 3790246, Chile",Avenida Libertador Bernardo O'Higgins,593,Chillán,Región de Ñuble,,3790246,place,house,node,1603020858.0
106881,-18.46500015,-70.30069733,,"Unimarc, Avenida Santa María, Chinchorro, Arica, Provincia de Arica, Región de Arica y Parinacota, 1020759, Chile",Avenida Santa María,,Arica,Región de Arica y Parinacota,,1020759,shop,supermarket,way,93720920.0
108721,-18.4843998,-70.29669952,,"Botillería Los Amigos, Tucapel, Villa Albergue, Arica, Provincia de Arica, Región de Arica y Parinacota, 1001110, Chile",Tucapel,,Arica,Región de Arica y Parinacota,,1001110,shop,alcohol,node,1237326005.0
119288,-41.32353845,-72.97995655,,"Andrés Bello, Población Municipal II, Puerto Varas, Provincia de Llanquihue, Región de Los Lagos, 5550596, Chile",Andrés Bello,,,Región de Los Lagos,,5550596,highway,residential,way,775325056.0
149575,-33.04430008,-71.36840057,,"Shell, 299, Avenida Valparaíso, Peñablanca, Villa Alemana, Provincia de Marga Marga, Región de Valparaíso, 6500000, Chile",Avenida Valparaíso,299,Villa Alemana,Región de Valparaíso,Peñablanca,6500000,amenity,fuel,way,707461225.0
157785,-33.0461998,-71.35399628,,"Las Delicias de La Yaya, 437, Manuel Montt, Villa Germania, Peñablanca, Villa Alemana, Provincia de Marga Marga, Región de Valparaíso, 6500000, Chile",Manuel Montt,437,Villa Alemana,Región de Valparaíso,Peñablanca,6500000,amenity,fast_food,node,4714047485.0
161043,-36.60380173,-72.09140015,,"106, Avenida Argentina, Chillancito, Chillán, Provincia de Diguillín, Región de Ñuble, 3800708, Chile",Avenida Argentina,106,Chillán,Región de Ñuble,,3800708,place,house,way,448417861.0
165935,-41.33160019,-72.97019958,,"A12, Avenida Colón, Población Los Canelos, Puerto Varas, Provincia de Llanquihue, Región de Los Lagos, 5550988, Chile",Avenida Colón,A12,,Región de Los Lagos,,5550988,place,house,node,8933282056.0
168104,-18.4702349,-70.30864698,,"Mall Plaza Arica, 640, Avenida Diego Portales, Conjunto Habitacional Pukara, Chinchorro, Arica, Provincia de Arica, Región de Arica y Parinacota, 1020759, Chile",Avenida Diego Portales,640,Arica,Región de Arica y Parinacota,,1020759,shop,mall,way,607983156.0
168105,-41.31919861,-72.98570251,,"Mall Paseo Puerto Varas, 666, San Francisco, Población Juan Costa, Puerto Varas, Provincia de Llanquihue, Región de Los Lagos, 5550596, Chile",San Francisco,666,,Región de Los Lagos,,5550596,shop,mall,way,304307058.0
191010,-18.48800087,-70.30619812,,"Las Codornices, Las Palmas, Arica, Provincia de Arica, Región de Arica y Parinacota, 1001110, Chile",Las Codornices,,Arica,Región de Arica y Parinacota,,1001110,highway,residential,way,147445691.0
192859,-33.04410172,-71.37400055,,"Farmacias Ahumada, Paseo Almirante Latorre, Población Lasnibat, Villa Alemana, Provincia de Marga Marga, Región de Valparaíso, 6500000, Chile",Paseo Almirante Latorre,,Villa Alemana,Región de Valparaíso,,6500000,amenity,pharmacy,node,2939745901.0
193077,-36.61560059,-72.10520172,,"Lider, 698, Avenida Schleyer, Población El Esfuerzo, Chillán, Provincia de Diguillín, Región de Ñuble, 3780000, Chile",Avenida Schleyer,698,Chillán,Región de Ñuble,,3780000,shop,supermarket,way,346363498.0
193221,-41.3103981,-72.99060059,,"0589, Calle Borde Lago Sur, Lomas del Lago, Puerto Varas, Provincia de Llanquihue, Región de Los Lagos, 5550176, Chile",Calle Borde Lago Sur,0589,,Región de Los Lagos,,5550176,place,house,node,8905296545.0
197020,-36.62590027,-72.07550049,,"Pasaje Los Montes, Brisas de San Agustin, Chillán, Provincia de Diguillín, Región de Ñuble, 3800708, Chile",Pasaje Los Montes,,Chillán,Región de Ñuble,,3800708,highway,living_street,way,28569602.0
224244,-36.57730103,-72.06719971,,"Chillán, Provincia de Diguillín, Región de Ñuble, 3800381, Chile",,,Chillán,Región de Ñuble,,3800381,highway,unclassified,way,111290569.0
233120,-33.61063055,-71.61226445,,"Chilexpress, 2315, Avenida Divina Providencia, Llo Lleo, San Antonio, Provincia de San Antonio, Región de Valparaíso, 2720000, Chile",Avenida Divina Providencia,2315,San Antonio,Región de Valparaíso,Llo Lleo,2720000,amenity,post_office,node,3739529228.0
240929,-32.7883808,-71.1905461,,"Arturo Prat, La Calera, Provincia de Quillota, Región de Valparaíso, 2290000, Chile",Arturo Prat,,,Región de Valparaíso,,2290000,highway,residential,way,578631833.0
245314,-18.48870087,-70.30549622,,"Las Codornices, Las Palmas, Arica, Provincia de Arica, Región de Arica y Parinacota, 1001110, Chile",Las Codornices,,Arica,Región de Arica y Parinacota,,1001110,highway,residential,way,147445706.0
247982,-36.61000061,-72.10109711,,"Torre I Mall Arauco Chillán, 770, El Roble, Chillán, Provincia de Diguillín, Región de Ñuble, 3800720, Chile",El Roble,770,Chillán,Región de Ñuble,,3800720,shop,mall,way,633129563.0
273851,-33.04489899,-71.39170074,,"Quito, Población Benito Juárez, Villa Alemana, Provincia de Marga Marga, Región de Valparaíso, 2450934, Chile",Quito,,Villa Alemana,Región de Valparaíso,,2450934,highway,secondary,way,593526058.0
276015,-41.33140182,-72.97029877,,"Chabelita, Avenida Colón, Población Errázuriz, Puerto Varas, Provincia de Llanquihue, Región de Los Lagos, 5550988, Chile",Avenida Colón,,,Región de Los Lagos,,5550988,shop,convenience,node,3655926080.0
293188,-36.60820007,-72.1115036,,"Rosas, Carlos Ibáñez del Campo, Chillán, Provincia de Diguillín, Región de Ñuble, 3790246, Chile",Rosas,,Chillán,Región de Ñuble,,3790246,highway,residential,way,155534320.0
299473,-33.04299927,-71.4138031,,"Araus, Patricio Lynch, El Belloto, Quilpué, Provincia de Marga Marga, Región de Valparaíso, 2420622, Chile",Araus,,Quilpué,Región de Valparaíso,El Belloto,2420622,highway,residential,way,27612098.0
299628,-18.4571991,-70.28759766,,"Los Industriales, Barros Arana, Villa Los Industriales, Arica, Provincia de Arica, Región de Arica y Parinacota, 1020759, Chile",Barros Arana,,Arica,Región de Arica y Parinacota,,1020759,shop,convenience,node,6143653728.0
309266,-41.32339859,-72.98519897,,"El Baúl Mágico, 1119, San Francisco, Población Juan Costa, Puerto Varas, Provincia de Llanquihue, Región de Los Lagos, 5550596, Chile",San Francisco,1119,,Región de Los Lagos,,5550596,shop,gift,node,8922784462.0
317719,-41.3288002,-72.9661026,,"1131, Caupolicán, Conjunto Vista Hermosa, Puerto Varas, Provincia de Llanquihue, Región de Los Lagos, 5550988, Chile",Caupolicán,1131,,Región de Los Lagos,,5550988,place,house,node,8933394978.0
322960,-36.58869934,-72.12039948,,"Parque Nacional Rapa Nui, Bosques de Arrayán, Chillán, Provincia de Diguillín, Región de Ñuble, 3800720, Chile",Parque Nacional Rapa Nui,,Chillán,Región de Ñuble,,3800720,highway,residential,way,491950290.0
328315,-33.03919983,-71.39839935,,"2596, Rafael Fabres, Villa Caviale, Villa Alemana, Provincia de Marga Marga, Región de Valparaíso, 2450934, Chile",Rafael Fabres,2596,Villa Alemana,Región de Valparaíso,,2450934,building,house,way,753572725.0
333513,-33.0564003,-71.37090302,,"Rosmar, Veteranos del 79, El Peumo, Peñablanca, Villa Alemana, Provincia de Marga Marga, Región de Valparaíso, 6500000, Chile",Veteranos del 79,,Villa Alemana,Región de Valparaíso,Peñablanca,6500000,shop,convenience,node,4306877920.0
333669,-41.3239868,-72.9835569,,"275, Avenida Colón, Población Santa Rosa, Puerto Varas, Provincia de Llanquihue, Región de Los Lagos, 5550596, Chile",Avenida Colón,275,,Región de Los Lagos,,5550596,place,house,node,8917515895.0
336775,-33.0439277,-71.3723073,,"Movistar, Blanco Encalada, Peñablanca, Villa Alemana, Provincia de Marga Marga, Región de Valparaíso, 6500000, Chile",Blanco Encalada,,Villa Alemana,Región de Valparaíso,Peñablanca,6500000,office,telecommunication,way,707963272.0
336906,-32.79809952,-71.21399689,,"Paradero 26, La Calera, Carrera, Villa Valparaíso, La Calera, Provincia de Quillota, Región de Valparaíso, 2290000, Chile",Carrera,,,Región de Valparaíso,,2290000,highway,bus_stop,node,9857418888.0
345540,-32.78710175,-71.18979645,,"Santogelato, José Joaquín Pérez, La Calera, Provincia de Quillota, Región de Valparaíso, 2290000, Chile",José Joaquín Pérez,,,Región de Valparaíso,,2290000,amenity,ice_cream,way,721008293.0
345543,-33.0441552,-71.3735363,,"Banco Condell, Avenida Valparaíso, Población Lasnibat, Peñablanca, Villa Alemana, Provincia de Marga Marga, Región de Valparaíso, 6500000, Chile",Avenida Valparaíso,,Villa Alemana,Región de Valparaíso,Peñablanca,6500000,amenity,bank,node,3156241803.0
347892,-33.0443111,-71.3951633,,"Edificio Vista Las Américas, El Roble, Población Benito Juárez, Villa Alemana, Provincia de Marga Marga, Región de Valparaíso, 2450934, Chile",El Roble,,Villa Alemana,Región de Valparaíso,,2450934,building,apartments,way,735358003.0
348542,-41.3157891,-72.9849706,,"434, Portales, Mirador de Philippi, Puerto Varas, Provincia de Llanquihue, Región de Los Lagos, 5550451, Chile",Portales,434,,Región de Los Lagos,,5550451,place,house,node,8911726660.0
353572,-41.3192388,-72.9855857,,"Mall Paseo Puerto Varas, 666, San Francisco, Población Juan Costa, Puerto Varas, Provincia de Llanquihue, Región de Los Lagos, 5550596, Chile",San Francisco,666,,Región de Los Lagos,,5550596,shop,mall,way,304307058.0
356864,-18.4847475,-70.2967945,,"Tucapel, Villa Albergue, Arica, Provincia de Arica, Región de Arica y Parinacota, 1001110, Chile",Tucapel,,Arica,Región de Arica y Parinacota,,1001110,highway,secondary,way,827535447.0
364034,-36.6173551,-72.0799212,,"Laguna de Puerto Rey, Paseo de Aragón, Chillán, Provincia de Diguillín, Región de Ñuble, 3800708, Chile",Laguna de Puerto Rey,,Chillán,Región de Ñuble,,3800708,highway,residential,way,149331338.0
368613,-33.0444956,-71.377381,,"Setergas, Avenida Valparaíso, Población Lasnibat, Villa Alemana, Provincia de Marga Marga, Región de Valparaíso, 6500000, Chile",Avenida Valparaíso,,Villa Alemana,Región de Valparaíso,,6500000,shop,hardware,node,5921679926.0
377872,-36.5906303,-72.0852024,,"Líder Express, 1155, Avenida Paul Harris, Villa Portal Quilamapu, Chillán, Provincia de Diguillín, Región de Ñuble, 3800381, Chile",Avenida Paul Harris,1155,Chillán,Región de Ñuble,,3800381,shop,supermarket,way,157968901.0
68059,-36.5995579,-72.1009632,,"Mall Chino, Avenida Ecuador, Sargento Aldea, Chillán, Provincia de Diguillín, Región de Ñuble, 3800720, Chile",Avenida Ecuador,,Chillán,Región de Ñuble,,3800720,shop,variety_store,way,400341013.0
136415,-38.7356987,-72.61009979,,"555, Senador Estébanez, Barrio Dreves, Temuco, Provincia de Cautín, Región de la Araucanía, 4801011, Chile",Senador Estébanez,555,Temuco,Región de la Araucanía,,4801011,place,house,node,8586833744.0
143789,-38.7404989,-72.5885794,,"989, Antonio Varas, Centro, Temuco, Provincia de Cautín, Región de la Araucanía, 4791083, Chile",Antonio Varas,989,Temuco,Región de la Araucanía,,4791083,place,house,node,8546370302.0
144054,-38.7410946,-72.6072223,,"0297, Bernardo O'Higgins, Barrio Dreves, Temuco, Provincia de Cautín, Región de la Araucanía, 4810370, Chile",Bernardo O'Higgins,0297,Temuco,Región de la Araucanía,,4810370,place,house,node,8586923408.0
150950,-38.7414476,-72.60321675,,"Petrobras, 027, Bernardo O'Higgins, Villa Imperial, Temuco, Provincia de Cautín, Región de la Araucanía, 4810370, Chile",Bernardo O'Higgins,027,Temuco,Región de la Araucanía,,4810370,amenity,fuel,way,913564677.0
177612,-38.73239899,-72.61460114,,"0870, Aragón, Temuco, Provincia de Cautín, Región de la Araucanía, 4801011, Chile",Aragón,0870,Temuco,Región de la Araucanía,,4801011,place,house,node,8586833806.0
179649,-38.7347492,-72.6115623,,"0680, Avenida Alemania, Temuco, Provincia de Cautín, Región de la Araucanía, 4801011, Chile",Avenida Alemania,0680,Temuco,Región de la Araucanía,,4801011,place,house,node,8580030040.0
193095,-38.73279953,-72.61049652,,"Portal Temuco, 0671, Avenida Alemania, Temuco, Provincia de Cautín, Región de la Araucanía, 4801011, Chile",Avenida Alemania,0671,Temuco,Región de la Araucanía,,4801011,shop,mall,way,912456959.0
193355,-38.73899841,-72.62509918,,"1190, Rume, Villa Los Lagos, Temuco, Provincia de Cautín, Región de la Araucanía, 4801011, Chile",Rume,1190,Temuco,Región de la Araucanía,,4801011,place,house,node,8586811893.0
197262,-38.73860168,-72.63200378,,"02050, Avenida Pablo Neruda, Villa Las Condes, Temuco, Provincia de Cautín, Región de la Araucanía, 4802670, Chile",Avenida Pablo Neruda,02050,Temuco,Región de la Araucanía,,4802670,shop,stationery,node,998146632.0
235813,-38.73619843,-72.62840271,,"Ciclovía Javiera Carrera, Villa Rochdale, Temuco, Provincia de Cautín, Región de la Araucanía, 4823435, Chile",Ciclovía Javiera Carrera,,Temuco,Región de la Araucanía,,4823435,highway,cycleway,way,308990581.0
254663,-38.73249817,-72.61450195,,"0870, Aragón, Temuco, Provincia de Cautín, Región de la Araucanía, 4801011, Chile",Aragón,0870,Temuco,Región de la Araucanía,,4801011,place,house,node,8586833806.0
292229,-38.75230026,-72.60410309,,"233, Avenida Los Poetas, Las Quilas, Temuco, Provincia de Cautín, Región de la Araucanía, 4811161, Chile",Avenida Los Poetas,233,Temuco,Región de la Araucanía,,4811161,place,house,node,8546154594.0
299825,-38.7339765,-72.622689,,"01540, Valladolid, Villa Canpalau, Temuco, Provincia de Cautín, Región de la Araucanía, 4801011, Chile",Valladolid,01540,Temuco,Región de la Araucanía,,4801011,place,house,node,8580748958.0
303259,-38.7281767,-72.6215067,,"190, Caldera, Villa Canpalau, Temuco, Provincia de Cautín, Región de la Araucanía, 4800601, Chile",Caldera,190,Temuco,Región de la Araucanía,,4800601,place,house,node,8611082377.0
351759,-38.7375631,-72.59171115,,"El Trébol, 450, Vicuña Mackenna, Centro, Temuco, Provincia de Cautín, Región de la Araucanía, 4791047, Chile",Vicuña Mackenna,450,Temuco,Región de la Araucanía,,4791047,shop,supermarket,node,5167327623.0
360440,-38.7302631,-72.61702441,,"01030, Inglaterra, Villa Canpalau, Temuco, Provincia de Cautín, Región de la Araucanía, 4800601, Chile",Inglaterra,01030,Temuco,Región de la Araucanía,,4800601,place,house,node,8586924848.0
361783,-38.7513539,-72.6175859,,"0945, Los Almendros, Villa Andalucía, Temuco, Provincia de Cautín, Región de la Araucanía, 4811161, Chile",Los Almendros,0945,Temuco,Región de la Araucanía,,4811161,place,house,node,8570093729.0
367903,-38.7226169,-72.6328507,,"120, Alfonso Taito, El Bosque, Temuco, Provincia de Cautín, Región de la Araucanía, 4802670, Chile",Alfonso Taito,120,Temuco,Región de la Araucanía,,4802670,place,house,node,8611088757.0
119257,-38.73830032,-72.63110352,,"Shell, 02030, Avenida Pablo Neruda, Villa Las Condes, Temuco, Provincia de Cautín, Región de la Araucanía, 4802670, Chile",Avenida Pablo Neruda,02030,Temuco,Región de la Araucanía,,4802670,amenity,fuel,way,917480723.0
122465,-38.75220108,-72.61579895,,"01302, Las Piceas, Villa Andrés Bello, Temuco, Provincia de Cautín, Región de la Araucanía, 4811161, Chile",Las Piceas,01302,Temuco,Región de la Araucanía,,4811161,place,house,node,8570147164.0
131430,-38.7334199,-72.6107221,,"Portal Temuco, 0671, Avenida Alemania, Temuco, Provincia de Cautín, Región de la Araucanía, 4801011, Chile",Avenida Alemania,0671,Temuco,Región de la Araucanía,,4801011,shop,mall,way,912456959.0
158732,-38.73770142,-72.59449768,,"497, Manuel Montt, Centro, Temuco, Provincia de Cautín, Región de la Araucanía, 4781158, Chile",Manuel Montt,497,Temuco,Región de la Araucanía,,4781158,place,house,node,8546390361.0
167166,-38.7251252,-72.6298727,,"Supermercados El Trébol, 02175, Avenida Luis Durand, Jardín de América, Temuco, Provincia de Cautín, Región de la Araucanía, 4802670, Chile",Avenida Luis Durand,02175,Temuco,Región de la Araucanía,,4802670,shop,supermarket,way,917434065.0
168602,-38.73337805,-72.61422425,,"Unimarc, 849, Avenida Alemania, Temuco, Provincia de Cautín, Región de la Araucanía, 4801011, Chile",Avenida Alemania,849,Temuco,Región de la Araucanía,,4801011,shop,supermarket,node,4101065289.0
174155,-38.75799942,-72.60019684,,"1457, La Barra, Barrio Cautín, Padre Las Casas, Provincia de Cautín, Región de la Araucanía, 4850000, Chile",La Barra,1457,,Región de la Araucanía,,4850000,place,house,node,9118009787.0
190693,-38.7374893,-72.6293401,,"1140, Avenida Javiera Carrera, Sector Poniente, Temuco, Provincia de Cautín, Región de la Araucanía, 4802670, Chile",Avenida Javiera Carrera,1140,Temuco,Región de la Araucanía,,4802670,place,house,node,8576462280.0
193000,-38.73860168,-72.62010193,,"01308, Trihue, Villa Los Lagos, Temuco, Provincia de Cautín, Región de la Araucanía, 4801011, Chile",Trihue,01308,Temuco,Región de la Araucanía,,4801011,place,house,node,8586812455.0
193354,-38.7356987,-72.61009979,,"555, Senador Estébanez, Barrio Dreves, Temuco, Provincia de Cautín, Región de la Araucanía, 4801011, Chile",Senador Estébanez,555,Temuco,Región de la Araucanía,,4801011,place,house,node,8586833744.0
202322,-38.73830032,-72.62870026,,"01865, Avenida Pablo Neruda, Villa Los Lagos, Temuco, Provincia de Cautín, Región de la Araucanía, 4802670, Chile",Avenida Pablo Neruda,01865,Temuco,Región de la Araucanía,,4802670,place,house,node,8580533267.0
202354,-38.7567919,-72.5933141,,"El Trébol, 774, Villa Alegre, Huicha Sur II, Padre Las Casas, Provincia de Cautín, Región de la Araucanía, 4850000, Chile",Villa Alegre,774,,Región de la Araucanía,,4850000,shop,supermarket,node,5020320228.0
234763,-38.76660156,-72.60040283,,"1620, San Petersburgo, Nueva República, Padre Las Casas, Provincia de Cautín, Región de la Araucanía, 4861600, Chile",San Petersburgo,1620,,Región de la Araucanía,,4861600,place,house,node,9178216144.0
235818,-38.74399948,-72.63490295,,"02105, Avenida Las Encinas, Villa Trianon, Temuco, Provincia de Cautín, Región de la Araucanía, 4823435, Chile",Avenida Las Encinas,02105,Temuco,Región de la Araucanía,,4823435,place,house,node,8576454898.0
257437,-38.7250839,-72.6298802,,"Supermercados El Trébol, 02175, Avenida Luis Durand, Jardín de América, Temuco, Provincia de Cautín, Región de la Araucanía, 4802670, Chile",Avenida Luis Durand,02175,Temuco,Región de la Araucanía,,4802670,shop,supermarket,way,917434065.0
295212,-38.7367163,-72.5887831,,"314, Manuel Bulnes, Centro, Temuco, Provincia de Cautín, Región de la Araucanía, 4791047, Chile",Manuel Bulnes,314,Temuco,Región de la Araucanía,,4791047,place,house,node,8546387871.0
314620,-38.74169922,-72.60520172,,"Unimarc, 0160, Bernardo O'Higgins, Villa Imperial, Temuco, Provincia de Cautín, Región de la Araucanía, 4810370, Chile",Bernardo O'Higgins,0160,Temuco,Región de la Araucanía,,4810370,shop,supermarket,way,245318932.0
318031,-38.7358017,-72.63960266,,"Centro Comercial Puente Inglés, 2491, Avenida Pablo Neruda, Villa Las Condes, Temuco, Provincia de Cautín, Región de la Araucanía, 4802670, Chile",Avenida Pablo Neruda,2491,Temuco,Región de la Araucanía,,4802670,shop,shopping_centre,way,854972943.0
345815,-38.731052,-72.6037933,,"0405, Avenida Pedro de Valdivia, Villa Ñielol, Temuco, Provincia de Cautín, Región de la Araucanía, 4800996, Chile",Avenida Pedro de Valdivia,0405,Temuco,Región de la Araucanía,,4800996,place,house,node,8586923233.0
352323,-38.75305,-72.62748,,"1804, Avenida Italia, Villa Los Ganaderos, Temuco, Provincia de Cautín, Región de la Araucanía, 4811161, Chile",Avenida Italia,1804,Temuco,Región de la Araucanía,,4811161,place,house,node,8569304928.0
61250,-38.73774,-72.6312216,,"02025, Avenida Pablo Neruda, Villa Las Condes, Temuco, Provincia de Cautín, Región de la Araucanía, 4802670, Chile",Avenida Pablo Neruda,02025,Temuco,Región de la Araucanía,,4802670,place,house,node,8580533078.0
65478,-38.73509979,-72.62830353,,"920, Avenida Javiera Carrera, Sector Poniente, Temuco, Provincia de Cautín, Región de la Araucanía, 4802670, Chile",Avenida Javiera Carrera,920,Temuco,Región de la Araucanía,,4802670,place,house,node,8576462250.0
104959,-38.7419014,-72.59680176,,"strip center, Las Heras, Campamento Pichicautin, Temuco, Provincia de Cautín, Región de la Araucanía, 4781158, Chile",Las Heras,,Temuco,Región de la Araucanía,,4781158,shop,shopping_centre,way,424202193.0
119377,-38.73619843,-72.6026001,,"Copec Avenida Alemania, 083, Avenida Alemania, Barrio Dreves, Temuco, Provincia de Cautín, Región de la Araucanía, 4801072, Chile",Avenida Alemania,083,Temuco,Región de la Araucanía,,4801072,amenity,fuel,way,251078606.0
130645,-38.73609924,-72.58830261,,"Galería Ñielol, Lautaro, Centro, Temuco, Provincia de Cautín, Región de la Araucanía, 4790839, Chile",Lautaro,,Temuco,Región de la Araucanía,,4790839,shop,mall,way,1113205532.0
140585,-38.7417984,-72.60520172,,"Unimarc, 0160, Bernardo O'Higgins, Villa Imperial, Temuco, Provincia de Cautín, Región de la Araucanía, 4810370, Chile",Bernardo O'Higgins,0160,Temuco,Región de la Araucanía,,4810370,shop,supermarket,way,245318932.0
148725,-38.75439835,-72.62609863,,"01441, Avenida Manuel Recabarren, Amanecer, Temuco, Provincia de Cautín, Región de la Araucanía, 4811161, Chile",Avenida Manuel Recabarren,01441,Temuco,Región de la Araucanía,,4811161,place,house,node,8569177521.0
158524,-38.7378006,-72.59760284,,"Carrusel, Avenida Caupolicán, Centro, Temuco, Provincia de Cautín, Región de la Araucanía, 4781158, Chile",Avenida Caupolicán,,Temuco,Región de la Araucanía,,4781158,building,commercial,way,189312447.0
162289,-38.74160004,-72.59649658,,"El GATO, 405, Avenida San Martín, Campamento Pichicautin, Temuco, Provincia de Cautín, Región de la Araucanía, 4781158, Chile",Avenida San Martín,405,Temuco,Región de la Araucanía,,4781158,shop,convenience,node,4236638529.0
162884,-38.7295699,-72.606705,,"038, Francia, Villa Ñielol, Temuco, Provincia de Cautín, Región de la Araucanía, 4800996, Chile",Francia,038,Temuco,Región de la Araucanía,,4800996,place,house,node,8586923829.0
172974,-38.73339844,-72.61060333,,"Portal Temuco, 0671, Avenida Alemania, Temuco, Provincia de Cautín, Región de la Araucanía, 4801011, Chile",Avenida Alemania,0671,Temuco,Región de la Araucanía,,4801011,shop,mall,way,912456959.0
182316,-38.7209102,-72.6205784,,"01693, Avenida Cristóbal Colón, Villa Caupolicán, Temuco, Provincia de Cautín, Región de la Araucanía, 4800601, Chile",Avenida Cristóbal Colón,01693,Temuco,Región de la Araucanía,,4800601,place,house,node,8611083406.0
192871,-38.73770142,-72.61730194,,"Farmacias Ahumada, 890, Hochstetter, Barrio Dreves, Temuco, Provincia de Cautín, Región de la Araucanía, 4801011, Chile",Hochstetter,890,Temuco,Región de la Araucanía,,4801011,amenity,pharmacy,way,1157095670.0
205404,-38.73989868,-72.60749817,,"0301, Avenida San Martín, Barrio Dreves, Temuco, Provincia de Cautín, Región de la Araucanía, 4810370, Chile",Avenida San Martín,0301,Temuco,Región de la Araucanía,,4810370,place,house,node,8586921653.0
227102,-38.73469925,-72.63960266,,"02661, El Llano, Villa El Prado, Temuco, Provincia de Cautín, Región de la Araucanía, 4802670, Chile",El Llano,02661,Temuco,Región de la Araucanía,,4802670,place,house,node,8611096885.0
246422,-38.72909927,-72.61979675,,"01540, Avenida Gabriela Mistral, Villa Canpalau, Temuco, Provincia de Cautín, Región de la Araucanía, 4800601, Chile",Avenida Gabriela Mistral,01540,Temuco,Región de la Araucanía,,4800601,place,house,node,8586924261.0
261754,-38.7369402,-72.63434,,"Petrobras, 02211, Avenida Pablo Neruda, Villa Las Condes, Temuco, Provincia de Cautín, Región de la Araucanía, 4802670, Chile",Avenida Pablo Neruda,02211,Temuco,Región de la Araucanía,,4802670,amenity,fuel,way,917053918.0
277371,-38.73939896,-72.61070251,,"0577, Avenida San Martín, Barrio Dreves, Temuco, Provincia de Cautín, Región de la Araucanía, 4810370, Chile",Avenida San Martín,0577,Temuco,Región de la Araucanía,,4810370,place,house,node,8586924214.0
289751,-38.7365718,-72.5878531,,"Galería Ñielol, Lautaro, Centro, Temuco, Provincia de Cautín, Región de la Araucanía, 4790839, Chile",Lautaro,,Temuco,Región de la Araucanía,,4790839,shop,mall,way,1113205532.0
294738,-38.73249817,-72.61460114,,"0870, Aragón, Temuco, Provincia de Cautín, Región de la Araucanía, 4801011, Chile",Aragón,0870,Temuco,Región de la Araucanía,,4801011,place,house,node,8586833806.0
299855,-38.73740005,-72.63279724,,"1190, Francisco Escalona, Lomas de Mirasur, Temuco, Provincia de Cautín, Región de la Araucanía, 4802670, Chile",Francisco Escalona,1190,Temuco,Región de la Araucanía,,4802670,place,house,node,8580532759.0
299862,-38.74240112,-72.63069916,,"1555, Avenida Javiera Carrera, Villa Rochdale, Temuco, Provincia de Cautín, Región de la Araucanía, 4802670, Chile",Avenida Javiera Carrera,1555,Temuco,Región de la Araucanía,,4802670,place,house,node,8576453484.0
303261,-38.72650146,-72.62539673,,"01997, Avenida Luis Durand, Jardín de América, Temuco, Provincia de Cautín, Región de la Araucanía, 4800601, Chile",Avenida Luis Durand,01997,Temuco,Región de la Araucanía,,4800601,place,house,node,8611090626.0
333754,-38.7417984,-72.59690094,,"strip center, Las Heras, Campamento Pichicautin, Temuco, Provincia de Cautín, Región de la Araucanía, 4781158, Chile",Las Heras,,Temuco,Región de la Araucanía,,4781158,shop,shopping_centre,way,424202193.0
377592,-38.70899,-72.65919,,"0298, Los Escultores, Villa Los Creadores, Fundo El Carmen, Temuco, Provincia de Cautín, Región de la Araucanía, 4800567, Chile",Los Escultores,0298,Temuco,Región de la Araucanía,Fundo El Carmen,4800567,place,house,node,8592479605.0
64019,-38.73249817,-72.61630249,,"Casino Dreams Araucanía, 0945, Avenida Alemania, Temuco, Provincia de Cautín, Región de la Araucanía, 4801011, Chile",Avenida Alemania,0945,Temuco,Región de la Araucanía,,4801011,amenity,casino,way,299921434.0
66842,-38.73009872,-72.62110138,,"370, Avenida Andes, Villa Canpalau, Temuco, Provincia de Cautín, Región de la Araucanía, 4800601, Chile",Avenida Andes,370,Temuco,Región de la Araucanía,,4800601,place,house,node,8586772635.0
142748,-38.7466184,-72.6261922,,"Vidapet, 1940, Olimpia, Juan Pablo II, Temuco, Provincia de Cautín, Región de la Araucanía, 4811161, Chile",Olimpia,1940,Temuco,Región de la Araucanía,,4811161,amenity,veterinary,node,4729575290.0
150269,-38.7373122,-72.5888308,,"368, Manuel Bulnes, Centro, Temuco, Provincia de Cautín, Región de la Araucanía, 4791047, Chile",Manuel Bulnes,368,Temuco,Región de la Araucanía,,4791047,place,house,node,8546388217.0
151637,-38.737608,-72.5917441,,"El Trébol, 450, Vicuña Mackenna, Centro, Temuco, Provincia de Cautín, Región de la Araucanía, 4791047, Chile",Vicuña Mackenna,450,Temuco,Región de la Araucanía,,4791047,shop,supermarket,node,5167327623.0
160947,-38.7358017,-72.57990265,,"Feria Pinto, Ciclovia, Villa Olímpica, Temuco, Provincia de Cautín, Región de la Araucanía, 4790703, Chile",Ciclovia,,Temuco,Región de la Araucanía,,4790703,amenity,marketplace,way,909292450.0
169921,-38.7303009,-72.62110138,,"390, Avenida Andes, Villa Canpalau, Temuco, Provincia de Cautín, Región de la Araucanía, 4800601, Chile",Avenida Andes,390,Temuco,Región de la Araucanía,,4800601,place,house,node,8586772566.0
186926,-38.73740005,-72.63289642,,"02165, Avenida Pablo Neruda, Villa Las Condes, Temuco, Provincia de Cautín, Región de la Araucanía, 4802670, Chile",Avenida Pablo Neruda,02165,Temuco,Región de la Araucanía,,4802670,place,house,node,8580532790.0
195541,-38.74290085,-72.59690094,,"416, Bernardo O'Higgins, Campamento Pichicautin, Temuco, Provincia de Cautín, Región de la Araucanía, 4781158, Chile",Bernardo O'Higgins,416,Temuco,Región de la Araucanía,,4781158,place,house,node,8546389759.0
258236,-38.7352951,-72.6089519,,"0585, Avenida Alemania, Barrio Dreves, Temuco, Provincia de Cautín, Región de la Araucanía, 4801011, Chile",Avenida Alemania,0585,Temuco,Región de la Araucanía,,4801011,place,house,node,8580029946.0
270361,-38.73479843,-72.62259674,,"01590, Volcán Llaima, Sector Poniente, Temuco, Provincia de Cautín, Región de la Araucanía, 4801011, Chile",Volcán Llaima,01590,Temuco,Región de la Araucanía,,4801011,place,house,node,8580748597.0
270386,-38.73490143,-72.62270355,,"Avenida Andes, Sector Poniente, Temuco, Provincia de Cautín, Región de la Araucanía, 4801011, Chile",Avenida Andes,,Temuco,Región de la Araucanía,,4801011,highway,secondary,way,159843705.0
348261,-38.75305,-72.62748,,"1804, Avenida Italia, Villa Los Ganaderos, Temuco, Provincia de Cautín, Región de la Araucanía, 4811161, Chile",Avenida Italia,1804,Temuco,Región de la Araucanía,,4811161,place,house,node,8569304928.0
369406,-38.7338908,-72.631263,,"890, Pedro Nolasco, Lomas de Mirasur, Temuco, Provincia de Cautín, Región de la Araucanía, 4802670, Chile",Pedro Nolasco,890,Temuco,Región de la Araucanía,,4802670,place,house,node,8580533290.0
371312,-38.74995635,-72.6372524,,"2730, Avenida Javiera Carrera, Villa Altamira, Temuco, Provincia de Cautín, Región de la Araucanía, 4823435, Chile",Avenida Javiera Carrera,2730,Temuco,Región de la Araucanía,,4823435,place,house,node,8569091230.0
374835,-38.7301888,-72.6173131,,"01051, Inglaterra, Villa Canpalau, Temuco, Provincia de Cautín, Región de la Araucanía, 4800601, Chile",Inglaterra,01051,Temuco,Región de la Araucanía,,4800601,place,house,node,8586923235.0
63734,-38.75339885,-72.6186057,,"Mayorista 10, 01650, Francisco Salazar, Villa Andalucía, Temuco, Provincia de Cautín, Región de la Araucanía, 4811161, Chile",Francisco Salazar,01650,Temuco,Región de la Araucanía,,4811161,shop,supermarket,way,51519343.0
65398,-38.73659897,-72.62059784,,"01345, Avenida San Martín, Sector Poniente, Temuco, Provincia de Cautín, Región de la Araucanía, 4801011, Chile",Avenida San Martín,01345,Temuco,Región de la Araucanía,,4801011,place,house,node,8586813960.0
112278,-29.94409943,-71.24430084,,"Avenida Cuatro Esquinas, Valle del Cerro Grande, El Milagro, La Serena, Provincia de Elqui, Región de Coquimbo, 1721664, Chile",Avenida Cuatro Esquinas,,La Serena,Región de Coquimbo,El Milagro,1721664,highway,secondary,way,300681702.0
130979,-29.92000008,-71.24970245,,"Ernesto Peñafiel, Villa Diaguitas, San Joaquín, La Serena, Provincia de Elqui, Región de Coquimbo, 1710368, Chile",Ernesto Peñafiel,,La Serena,Región de Coquimbo,San Joaquín,1710368,highway,residential,way,85361337.0
139607,-22.46030045,-68.92430115,,"Centro Educacional Integral de Adultos C.E.I.A, 1896, Bañados Espinoza, Calama, Provincia de El Loa, Región de Antofagasta, 1395584, Chile",Bañados Espinoza,1896,Calama,Región de Antofagasta,,1395584,amenity,school,way,989891253.0
151056,-29.8727859,-71.2476286,,"Valparaíso, Villa Alemania, Las Compañías, La Serena, Provincia de Elqui, Región de Coquimbo, 1732400, Chile",Valparaíso,,La Serena,Región de Coquimbo,Las Compañías,1732400,highway,residential,way,86008534.0
163463,-29.94397,-71.2429811,,"Copec, Avenida Cuatro Esquinas, Valle del Cerro Grande, El Milagro, La Serena, Provincia de Elqui, Región de Coquimbo, 1721664, Chile",Avenida Cuatro Esquinas,,La Serena,Región de Coquimbo,El Milagro,1721664,amenity,fuel,node,5412462907.0
165417,-29.92569923,-71.25900269,,"Mall Paseo Balmaceda, 2885, Avenida José Manuel Balmaceda, Población Víctor Domingo Silva, La Pampa, La Serena, Provincia de Elqui, Región de Coquimbo, 1710368, Chile",Avenida José Manuel Balmaceda,2885,La Serena,Región de Coquimbo,La Pampa,1710368,shop,mall,way,597848403.0
166237,-27.38260078,-70.33540344,,"Salitrera San Vicente, Rosario, El Palomar, Copiapó, Provincia de Copiapó, Región de Atacama, 1530000, Chile",Salitrera San Vicente,,Copiapó,Región de Atacama,El Palomar,1530000,highway,living_street,way,111402557.0
173894,-33.6796597,-71.21785635,,"Copec, Población Los Canelos, Melipilla, Provincia de Melipilla, Región Metropolitana de Santiago, 9580887, Chile",Copec,,Melipilla,Región Metropolitana de Santiago,,9580887,amenity,fuel,node,889423857.0
176829,-53.1581853,-70.8937435,,"Quillota, Playa Norte, Punta Arenas, Provincia de Magallanes, Región de Magallanes y de la Antártica Chilena, 6212814, Chile",Quillota,,Punta Arenas,Región de Magallanes y de la Antártica Chilena,,6212814,highway,residential,way,45419850.0
214349,-33.6846993,-71.2133804,,"Mall Vivo Melipilla, 395, Serrano, Las Margaritas, Melipilla, Provincia de Melipilla, Región Metropolitana de Santiago, 9580887, Chile",Serrano,395,Melipilla,Región Metropolitana de Santiago,,9580887,building,retail,way,112114163.0
229589,-29.9030926,-71.247573,,"672, Gregorio Cordovez, Barrio Andrés Bello, La Serena, Provincia de Elqui, Región de Coquimbo, 1720229, Chile",Gregorio Cordovez,672,La Serena,Región de Coquimbo,,1720229,building,yes,way,557989983.0
253448,-27.37619972,-70.3164978,,"Luis Flores / Los Carrera, Luis Flores, Villa Codelco, Copiapó, Provincia de Copiapó, Región de Atacama, 1532480, Chile",Luis Flores,,Copiapó,Región de Atacama,,1532480,highway,bus_stop,node,7668086017.0
254712,-29.91609955,-71.24770355,,"Strip Center Huanhualí, Avenida Gabriel González Videla, Villa Diaguitas, San Joaquín, La Serena, Provincia de Elqui, Región de Coquimbo, 1720468, Chile",Avenida Gabriel González Videla,,La Serena,Región de Coquimbo,San Joaquín,1720468,building,yes,way,629697038.0
255224,-53.12692615,-70.90906625,,"Puerto Sanlúcar Poniente, Villa Hernando de Magallanes, Villa Las Etnias, Punta Arenas, Provincia de Magallanes, Región de Magallanes y de la Antártica Chilena, 6210314, Chile",Puerto Sanlúcar Poniente,,Punta Arenas,Región de Magallanes y de la Antártica Chilena,,6210314,highway,residential,way,682801281.0
258971,-27.3662705,-70.3334532,,"Catedral de Copiapó, Chacabuco, Copiapó, Provincia de Copiapó, Región de Atacama, 1530000, Chile",Chacabuco,,Copiapó,Región de Atacama,,1530000,building,church,way,111354783.0
268580,-29.90550041,-71.25360107,,"Edificio Gabriela Mistral, 267, Avenida Francisco de Aguirre, Barrio Andrés Bello, La Serena, Provincia de Elqui, Región de Coquimbo, 1700900, Chile",Avenida Francisco de Aguirre,267,La Serena,Región de Coquimbo,,1700900,building,public,way,146468168.0
277425,-53.1385994,-70.89209747,,"Unimarc, Los Mañíos, Las Lengas, Punta Arenas, Provincia de Magallanes, Región de Magallanes y de la Antártica Chilena, 6210738, Chile",Los Mañíos,,Punta Arenas,Región de Magallanes y de la Antártica Chilena,,6210738,shop,supermarket,way,594017943.0
284443,-33.75370026,-70.73529816,,"Francisco Javier Krugger, Jardines de Linderos, Linderos, Buin, Provincia de Maipo, Región Metropolitana de Santiago, Chile",Francisco Javier Krugger,,,Región Metropolitana de Santiago,Linderos,,highway,secondary,way,85437247.0
285332,-33.73989868,-70.74970245,,"Bernardo O'Higgins, La Siembra 1, Buin, Provincia de Maipo, Región Metropolitana de Santiago, Chile",Bernardo O'Higgins,,,Región Metropolitana de Santiago,,,highway,tertiary,way,305139283.0
291803,-22.46179962,-68.92579651,,"Farmacia Red Popular Calama, 1903, Almirante Latorre, Calama, Provincia de El Loa, Región de Antofagasta, 1395584, Chile",Almirante Latorre,1903,Calama,Región de Antofagasta,,1395584,amenity,pharmacy,node,5310642294.0
295304,-53.13899994,-70.91200256,,"Iglesia Bautista Vertientes, 0914, Coronel José de los Santos Mardones, Molinera, Punta Arenas, Provincia de Magallanes, Región de Magallanes y de la Antártica Chilena, 6210314, Chile",Coronel José de los Santos Mardones,0914,Punta Arenas,Región de Magallanes y de la Antártica Chilena,,6210314,amenity,place_of_worship,node,6608032985.0
295454,-22.45759964,-68.92890167,,"Tarapacá, 2195-2199, Tarapacá, Calama, Provincia de El Loa, Región de Antofagasta, 1395584, Chile",Tarapacá,,Calama,Región de Antofagasta,,1395584,highway,bus_stop,node,7668065316.0
296312,-53.16279984,-70.9068985,,"Hotel Cabo de Hornos, 1093, Presidente Pedro Montt, Centro de Punta Arenas, Punta Arenas, Provincia de Magallanes, Región de Magallanes y de la Antártica Chilena, 6200000, Chile",Presidente Pedro Montt,1093,Punta Arenas,Región de Magallanes y de la Antártica Chilena,,6200000,tourism,hotel,way,362186937.0
300075,-33.6086998,-70.89969635,,"Semillitas, 49, María Ester Garay, El Ombu, Peñaflor, Provincia de Talagante, Región Metropolitana de Santiago, 9750000, Chile",María Ester Garay,49,,Región Metropolitana de Santiago,,9750000,amenity,kindergarten,node,3553177193.0
305397,-53.1330986,-70.87729645,,"Pista de Hielo Zona Austral, Acceso Zona Franca, Zona Franca, Punta Arenas, Provincia de Magallanes, Región de Magallanes y de la Antártica Chilena, 6210738, Chile",Acceso Zona Franca,,Punta Arenas,Región de Magallanes y de la Antártica Chilena,,6210738,leisure,ice_rink,node,8203322650.0
308003,-33.72359848,-70.73889923,,"035, El Bosque, Villa El Solar de Buin, La Obra, Buin, Provincia de Maipo, Región Metropolitana de Santiago, Chile",El Bosque,035,,Región Metropolitana de Santiago,,,place,house,node,8765785297.0
308006,-33.76200104,-70.73560333,,"Retén Linderos, Francisco Javier Krugger, Linderos, Buin, Provincia de Maipo, Región Metropolitana de Santiago, Chile",Francisco Javier Krugger,,,Región Metropolitana de Santiago,Linderos,,amenity,police,node,3897789543.0
310296,-33.72320175,-70.73449707,,"0452, Pasaje Federico Ateaga Poniente, Villa El Solar de Buin, La Obra, Buin, Provincia de Maipo, Región Metropolitana de Santiago, Chile",Pasaje Federico Ateaga Poniente,0452,,Región Metropolitana de Santiago,,,place,house,node,8784031901.0
